$GPGSV,4,1,13,01,,,,10,19,307,,11,,,,12,31,217,*77
$GPGSV,4,2,13,13,35,142,,15,61,185,,17,34,075,,18,,,*4B
$GPGSV,4,3,13,19,33,106,,20,21,277,,24,63,295,,25,,,*4A
$GPGSV,4,4,13,28,15,046,*47
$GLGSV,3,1,09,78,67,310,,86,16,025,,77,40,049,,79,23,260,*6E
$GLGSV,3,2,09,69,33,320,,88,04,127,,87,21,085,,67,23,185,*6E
$GLGSV,3,3,09,68,58,248,*51
$GPGGA,,,,,,0,,,,,,,,*66
$GPVTG,,T,,M,,N,,K,N*2C
$GPRMC,,V,,,,,,,,,,N*53
$GPGSA,A,1,,,,,,,,,,,,,,,*1E
$GNGSA,A,1,,,,,,,,,,,,,,,*00
$GPGSV,4,1,13,01,,,,10,19,307,,11,,,,12,31,217,*77
$GPGSV,4,2,13,13,35,142,,15,61,185,,17,34,075,,18,,,*4B
$GPGSV,4,3,13,19,33,106,,20,21,277,,24,63,295,,25,,,*4A
$GPGSV,4,4,13,28,15,046,*47
$GLGSV,3,1,09,78,67,310,24,86,16,025,,77,40,049,,79,23,260,*68
$GLGSV,3,2,09,69,33,320,,88,04,127,,87,21,085,,67,23,185,*6E
$GLGSV,3,3,09,68,58,248,*51
$GPGGA,,,,,,0,,,,,,,,*66
$GPVTG,,T,,M,,N,,K,N*2C
$GPRMC,,V,,,,,,,,,,N*53
$GPGSA,A,1,,,,,,,,,,,,,,,*1E
$GNGSA,A,1,,,,,,,,,,,,,,,*00
$GPGSV,4,1,13,01,,,,10,19,307,,11,,,,12,31,217,*77
$GPGSV,4,2,13,13,35,142,,15,61,185,,17,34,075,,18,,,*4B
$GPGSV,4,3,13,19,33,106,,20,21,277,,24,63,295,,25,,,*4A
$GPGSV,4,4,13,28,15,046,*47
$GLGSV,3,1,09,78,67,310,24,86,16,025,,77,40,049,,79,23,260,*68
$GLGSV,3,2,09,69,33,320,,88,04,127,,87,21,085,,67,23,185,*6E
$GLGSV,3,3,09,68,58,248,*51
$GPGGA,,,,,,0,,,,,,,,*66
$GPVTG,,T,,M,,N,,K,N*2C
$GPRMC,,V,,,,,,,,,,N*53
$GPGSA,A,1,,,,,,,,,,,,,,,*1E
$GNGSA,A,1,,,,,,,,,,,,,,,*00
$GPGSV,4,1,13,01,,,,10,19,307,,11,,,,12,31,217,*77
$GPGSV,4,2,13,13,35,142,,15,61,185,,17,34,075,,18,,,*4B
$GPGSV,4,3,13,19,33,106,,20,21,277,,24,63,295,,25,,,*4A
$GPGSV,4,4,13,28,15,046,*47
$GLGSV,3,1,09,78,67,310,24,86,16,025,,77,40,049,,79,23,260,*68
$GLGSV,3,2,09,69,33,320,,88,04,127,,87,21,085,,67,23,185,*6E
$GLGSV,3,3,09,68,58,248,*51
$GPGGA,,,,,,0,,,,,,,,*66
$GPVTG,,T,,M,,N,,K,N*2C
$GPRMC,,V,,,,,,,,,,N*53
$GPGSA,A,1,,,,,,,,,,,,,,,*1E
$GNGSA,A,1,,,,,,,,,,,,,,,*00
$GPGSV,4,1,13,01,,,,10,19,307,,11,,,,12,31,217,*77
$GPGSV,4,2,13,13,35,142,,15,61,185,,17,34,075,,18,,,*4B
$GPGSV,4,3,13,19,33,106,,20,21,277,,24,63,295,,25,,,*4A
$GPGSV,4,4,13,28,15,046,*47
$GLGSV,3,1,09,78,67,310,24,86,16,025,,77,40,049,,79,23,260,*68
$GLGSV,3,2,09,69,33,320,,88,04,127,,87,21,085,,67,23,185,*6E
$GLGSV,3,3,09,68,58,248,*51
$GPGGA,,,,,,0,,,,,,,,*66
$GPVTG,,T,,M,,N,,K,N*2C
$GPRMC,,V,,,,,,,,,,N*53
$GPGSA,A,1,,,,,,,,,,,,,,,*1E
$GNGSA,A,1,,,,,,,,,,,,,,,*00
$GPGSV,4,1,13,01,,,,10,19,307,,11,,,,12,31,217,*77
$GPGSV,4,2,13,13,35,142,,15,61,185,,17,34,075,,18,,,*4B
$GPGSV,4,3,13,19,33,106,,20,21,277,,24,63,295,,25,,,*4A
$GPGSV,4,4,13,28,15,046,*47
$GLGSV,3,1,09,78,67,310,24,86,16,025,,77,40,049,,79,23,260,*68
$GLGSV,3,2,09,69,33,320,,88,04,127,,87,21,085,,67,23,185,*6E
$GLGSV,3,3,09,68,58,248,*51
$GPGGA,,,,,,0,,,,,,,,*66
$GPVTG,,T,,M,,N,,K,N*2C
$GPRMC,,V,,,,,,,,,,N*53
$GPGSA,A,1,,,,,,,,,,,,,,,*1E
$GNGSA,A,1,,,,,,,,,,,,,,,*00
$GPGSV,4,1,13,01,,,,10,19,307,,11,,,,12,31,217,*77
$GPGSV,4,2,13,13,35,142,,15,61,185,,17,34,075,,18,,,*4B
$GPGSV,4,3,13,19,33,106,,20,21,277,,24,63,295,,25,,,*4A
$GPGSV,4,4,13,28,15,046,*47
$GLGSV,3,1,09,78,67,310,24,86,16,025,,77,40,049,,79,23,260,*68
$GLGSV,3,2,09,69,33,320,,88,04,127,,87,21,085,,67,23,185,*6E
$GLGSV,3,3,09,68,58,248,*51
$GPGGA,,,,,,0,,,,,,,,*66
$GPVTG,,T,,M,,N,,K,N*2C
$GPRMC,,V,,,,,,,,,,N*53
$GPGSA,A,1,,,,,,,,,,,,,,,*1E
$GNGSA,A,1,,,,,,,,,,,,,,,*00
$GPGSV,4,1,13,01,,,,10,19,307,,11,,,,12,31,217,*77
$GPGSV,4,2,13,13,35,142,,15,61,185,,17,34,075,,18,,,*4B
$GPGSV,4,3,13,19,33,106,,20,21,277,,24,63,295,,25,,,*4A
$GPGSV,4,4,13,28,15,046,*47
$GLGSV,3,1,10,78,67,310,24,,,,31,86,16,025,32,77,40,049,*58
$GLGSV,3,2,10,79,23,260,,69,33,320,,88,04,127,,87,21,085,*61
$GLGSV,3,3,10,67,23,185,,68,58,248,*65
$GPGGA,,,,,,0,,,,,,,,*66
$GPVTG,,T,,M,,N,,K,N*2C
$GPRMC,,V,,,,,,,,,,N*53
$GPGSA,A,1,,,,,,,,,,,,,,,*1E
$GNGSA,A,1,,,,,,,,,,,,,,,*00
$GPGSV,4,1,13,01,,,,10,19,307,,11,,,,12,31,217,*77
$GPGSV,4,2,13,13,35,142,,15,61,185,,17,34,075,,18,,,*4B
$GPGSV,4,3,13,19,33,106,,20,21,277,,24,63,295,,25,,,*4A
$GPGSV,4,4,13,28,15,046,*47
$GLGSV,3,1,10,78,67,310,24,,,,31,86,16,025,32,77,40,049,*58
$GLGSV,3,2,10,79,23,260,,69,33,320,,88,04,127,,87,21,085,*61
$GLGSV,3,3,10,67,23,185,,68,58,248,*65
$GPGGA,,,,,,0,,,,,,,,*66
$GPVTG,,T,,M,,N,,K,N*2C
$GPRMC,,V,,,,,,,,,,N*53
$GPGSA,A,1,,,,,,,,,,,,,,,*1E
$GNGSA,A,1,,,,,,,,,,,,,,,*00
$GPGSV,4,1,13,01,,,,10,19,307,,11,,,,12,31,217,*77
$GPGSV,4,2,13,13,35,142,,15,61,185,,17,34,075,,18,,,*4B
$GPGSV,4,3,13,19,33,106,,20,21,277,,24,63,295,,25,,,*4A
$GPGSV,4,4,13,28,15,046,*47
$GLGSV,3,1,10,78,67,310,24,,,,31,86,16,025,32,77,40,049,*58
$GLGSV,3,2,10,79,23,260,,69,33,320,,88,04,127,,87,21,085,*61
$GLGSV,3,3,10,67,23,185,,68,58,248,*65
$GPGGA,,,,,,0,,,,,,,,*66
$GPVTG,,T,,M,,N,,K,N*2C
$GPRMC,,V,,,,,,,,,,N*53
$GPGSA,A,1,,,,,,,,,,,,,,,*1E
$GNGSA,A,1,,,,,,,,,,,,,,,*00
$GPGSV,4,1,13,01,,,,10,19,307,,11,,,,12,31,217,*77
$GPGSV,4,2,13,13,35,142,,15,61,185,,17,34,075,,18,,,*4B
$GPGSV,4,3,13,19,33,106,,20,21,277,,24,63,295,,25,,,*4A
$GPGSV,4,4,13,28,15,046,*47
$GLGSV,3,1,10,78,67,310,24,,,,31,86,16,025,32,77,40,049,*58
$GLGSV,3,2,10,79,23,260,,69,33,320,,88,04,127,,87,21,085,*61
$GLGSV,3,3,10,67,23,185,,68,58,248,*65
$GPGGA,,,,,,0,,,,,,,,*66
$GPVTG,,T,,M,,N,,K,N*2C
$GPRMC,,V,,,,,,,,,,N*53
$GPGSA,A,1,,,,,,,,,,,,,,,*1E
$GNGSA,A,1,,,,,,,,,,,,,,,*00
$GPGSV,4,1,13,01,,,,10,19,307,,11,,,,12,31,217,*77
$GPGSV,4,2,13,13,35,142,,15,61,185,,17,34,075,,18,,,*4B
$GPGSV,4,3,13,19,33,106,,20,21,277,,24,63,295,,25,,,*4A
$GPGSV,4,4,13,28,15,046,*47
$GLGSV,3,1,10,78,67,310,24,,,,31,86,16,025,32,77,40,049,*58
$GLGSV,3,2,10,79,23,260,,69,33,320,,88,04,127,,87,21,085,*61
$GLGSV,3,3,10,67,23,185,,68,58,248,*65
$GPGGA,,,,,,0,,,,,,,,*66
$GPVTG,,T,,M,,N,,K,N*2C
$GPRMC,,V,,,,,,,,,,N*53
$GPGSA,A,1,,,,,,,,,,,,,,,*1E
$GNGSA,A,1,,,,,,,,,,,,,,,*00
$GPGSV,4,1,13,01,,,,10,19,307,,11,,,,12,31,217,*77
$GPGSV,4,2,13,13,35,142,,15,61,185,,17,34,075,,18,,,*4B
$GPGSV,4,3,13,19,33,106,,20,21,277,,24,63,295,,25,,,*4A
$GPGSV,4,4,13,28,15,046,*47
$GLGSV,3,1,10,78,67,310,24,,,,31,86,16,025,32,77,40,049,*58
$GLGSV,3,2,10,79,23,260,,69,33,320,,88,04,127,,87,21,085,*61
$GLGSV,3,3,10,67,23,185,,68,58,248,*65
$GPGGA,,,,,,0,,,,,,,,*66
$GPVTG,,T,,M,,N,,K,N*2C
$GPRMC,,V,,,,,,,,,,N*53
$GPGSA,A,1,,,,,,,,,,,,,,,*1E
$GNGSA,A,1,,,,,,,,,,,,,,,*00
$GPGSV,4,1,13,12,31,217,36,01,,,,10,19,307,,11,,,*72
$GPGSV,4,2,13,13,35,142,,15,61,185,,17,34,075,,18,,,*4B
$GPGSV,4,3,13,19,33,106,,20,21,277,,24,64,295,,25,,,*4D
$GPGSV,4,4,13,28,15,046,*47
$GLGSV,3,1,10,78,67,310,24,,,,31,86,16,025,32,77,40,049,*58
$GLGSV,3,2,10,79,23,260,,69,33,320,,88,04,127,,87,21,085,*61
$GLGSV,3,3,10,67,23,185,,68,58,248,*65
$GPGGA,,,,,,0,,,,,,,,*66
$GPVTG,,T,,M,,N,,K,N*2C
$GPRMC,,V,,,,,,,,,,N*53
$GPGSA,A,1,,,,,,,,,,,,,,,*1E
$GNGSA,A,1,,,,,,,,,,,,,,,*00
$GPGSV,4,1,13,12,31,217,37,01,,,,10,19,307,,11,,,*73
$GPGSV,4,2,13,13,35,142,,15,61,185,,17,34,075,,18,,,*4B
$GPGSV,4,3,13,19,33,106,,20,21,277,,24,64,295,,25,,,*4D
$GPGSV,4,4,13,28,15,046,*47
$GLGSV,3,1,10,78,67,310,24,,,,31,86,16,025,32,77,40,049,*58
$GLGSV,3,2,10,79,23,260,,69,33,320,,88,04,127,,87,21,085,*61
$GLGSV,3,3,10,67,23,185,,68,58,248,*65
$GPGGA,,,,,,0,,,,,,,,*66
$GPVTG,,T,,M,,N,,K,N*2C
$GPRMC,,V,,,,,,,,,,N*53
$GPGSA,A,1,,,,,,,,,,,,,,,*1E
$GNGSA,A,1,,,,,,,,,,,,,,,*00
$GPGSV,4,1,13,12,32,217,37,01,,,,10,19,307,,11,,,*70
$GPGSV,4,2,13,13,35,142,,15,61,185,,17,34,075,,18,,,*4B
$GPGSV,4,3,13,19,33,106,,20,21,277,,24,64,295,,25,,,*4D
$GPGSV,4,4,13,28,15,046,*47
$GLGSV,3,1,10,78,67,310,24,,,,31,86,16,025,32,67,23,185,23*5C
$GLGSV,3,2,10,77,40,049,,79,23,260,,69,33,320,,88,04,127,*69
$GLGSV,3,3,10,87,21,085,,68,58,248,*68
$GPGGA,,,,,,0,,,,,,,,*66
$GPVTG,,T,,M,,N,,K,N*2C
$GPRMC,,V,,,,,,,,,,N*53
$GPGSA,A,1,,,,,,,,,,,,,,,*1E
$GNGSA,A,1,,,,,,,,,,,,,,,*00
$GPGSV,4,1,13,12,32,217,37,01,,,,10,19,307,,11,,,*70
$GPGSV,4,2,13,13,35,142,,15,61,185,,17,34,075,,18,,,*4B
$GPGSV,4,3,13,19,33,106,,20,21,277,,24,64,295,,25,,,*4D
$GPGSV,4,4,13,28,15,046,*47
$GLGSV,3,1,10,78,67,310,24,,,,31,86,16,025,32,67,23,185,23*5C
$GLGSV,3,2,10,77,40,049,,79,23,260,,69,33,320,,88,04,127,*69
$GLGSV,3,3,10,87,21,085,,68,58,248,*68
$GPGGA,,,,,,0,,,,,,,,*66
$GPVTG,,T,,M,,N,,K,N*2C
$GPRMC,,V,,,,,,,,,,N*53
$GPGSA,A,1,,,,,,,,,,,,,,,*1E
$GNGSA,A,1,,,,,,,,,,,,,,,*00
$GPGSV,4,1,13,12,32,217,36,01,,,,10,19,307,,11,,,*71
$GPGSV,4,2,13,13,35,142,,15,61,185,,17,34,075,,18,,,*4B
$GPGSV,4,3,13,19,33,106,,20,21,277,,24,64,295,,25,,,*4D
$GPGSV,4,4,13,28,15,046,*47
$GLGSV,3,1,10,78,67,310,24,,,,31,86,16,025,32,67,23,185,23*5C
$GLGSV,3,2,10,77,40,049,,79,23,260,,69,33,320,,88,04,127,*69
$GLGSV,3,3,10,87,21,085,,68,58,248,*68
$GPGGA,,,,,,0,,,,,,,,*66
$GPVTG,,T,,M,,N,,K,N*2C
$GPRMC,,V,,,,,,,,,,N*53
$GPGSA,A,1,,,,,,,,,,,,,,,*1E
$GNGSA,A,1,,,,,,,,,,,,,,,*00
$GPGSV,4,1,13,12,32,217,37,01,,,,10,19,307,,11,,,*70
$GPGSV,4,2,13,13,35,142,,15,61,185,,17,34,075,,18,,,*4B
$GPGSV,4,3,13,19,33,106,,20,21,277,,24,64,295,,25,,,*4D
$GPGSV,4,4,13,28,15,046,*47
$GLGSV,3,1,10,78,67,310,24,,,,31,86,16,025,32,67,23,185,23*5C
$GLGSV,3,2,10,77,40,049,,79,23,260,,69,33,320,,88,04,127,*69
$GLGSV,3,3,10,87,21,085,,68,58,248,*68
$GPGGA,,,,,,0,,,,,,,,*66
$GPVTG,,T,,M,,N,,K,N*2C
$GPRMC,,V,,,,,,,,,,N*53
$GPGSA,A,1,,,,,,,,,,,,,,,*1E
$GNGSA,A,1,,,,,,,,,,,,,,,*00
$GPGSV,4,1,13,12,32,217,37,13,35,142,29,01,,,,10,19,307,*48
$GPGSV,4,2,13,11,,,,15,61,185,,17,34,075,,18,,,*78
$GPGSV,4,3,13,19,33,106,,20,21,277,,24,64,295,,25,,,*4D
$GPGSV,4,4,13,28,15,046,*47
$GLGSV,3,1,10,78,67,310,24,,,,31,86,16,025,32,67,23,185,23*5C
$GLGSV,3,2,10,77,40,049,,79,23,260,,69,33,320,,88,04,127,*69
$GLGSV,3,3,10,87,21,085,,68,58,248,*68
$GPGGA,,,,,,0,,,,,,,,*66
$GPVTG,,T,,M,,N,,K,N*2C
$GPRMC,,V,,,,,,,,,,N*53
$GPGSA,A,1,,,,,,,,,,,,,,,*1E
$GNGSA,A,1,,,,,,,,,,,,,,,*00
$GPGSV,4,1,13,12,32,217,37,13,35,142,29,01,,,,10,19,307,*48
$GPGSV,4,2,13,11,,,,15,61,185,,17,34,075,,18,,,*78
$GPGSV,4,3,13,19,33,106,,20,21,277,,24,64,295,,25,,,*4D
$GPGSV,4,4,13,28,15,046,*47
$GLGSV,3,1,10,78,67,310,24,,,,31,86,16,025,32,67,23,185,23*5C
$GLGSV,3,2,10,77,40,049,,79,23,260,,69,33,320,,88,04,127,*69
$GLGSV,3,3,10,87,21,085,,68,58,248,*68
$GPGGA,082902.5,,,,,0,,,,,,,,*7C
$GPVTG,,T,,M,,N,,K,N*2C
$GPRMC,,V,,,,,,,,,,N*53
$GPGSA,A,1,,,,,,,,,,,,,,,*1E
$GNGSA,A,1,,,,,,,,,,,,,,,*00
$GPGSV,4,1,13,12,32,217,37,13,35,142,30,01,,,,10,19,307,*40
$GPGSV,4,2,13,11,,,,15,61,185,,17,34,075,,18,,,*78
$GPGSV,4,3,13,19,33,106,,20,21,277,,24,64,295,,25,,,*4D
$GPGSV,4,4,13,28,15,046,*47
$GLGSV,3,1,10,78,67,310,24,,,,31,86,16,025,32,67,23,185,23*5C
$GLGSV,3,2,10,77,40,049,,79,23,260,,69,33,320,,88,04,127,*69
$GLGSV,3,3,10,87,21,085,,68,58,248,*68
$GPGGA,082903.5,,,,,0,,,,,,,,*7D
$GPVTG,,T,,M,,N,,K,N*2C
$GPRMC,,V,,,,,,,,,,N*53
$GPGSA,A,1,,,,,,,,,,,,,,,*1E
$GNGSA,A,1,,,,,,,,,,,,,,,*00
$GPGSV,4,1,13,12,32,217,37,13,35,142,30,01,,,,10,19,307,*40
$GPGSV,4,2,13,11,,,,15,61,185,,17,34,075,,18,,,*78
$GPGSV,4,3,13,19,33,106,,20,21,277,,24,64,295,,25,,,*4D
$GPGSV,4,4,13,28,15,046,*47
$GLGSV,3,1,10,78,67,310,24,,,,31,86,16,025,32,67,23,185,21*5E
$GLGSV,3,2,10,77,40,049,,79,23,260,,69,33,320,,88,04,127,*69
$GLGSV,3,3,10,87,21,085,,68,58,248,*68
$GPGGA,082904.5,,,,,0,,,,,,,,*7A
$GPVTG,,T,,M,,N,,K,N*2C
$GPRMC,,V,,,,,,,,,,N*53
$GPGSA,A,1,,,,,,,,,,,,,,,*1E
$GNGSA,A,1,,,,,,,,,,,,,,,*00
$GPGSV,4,1,13,12,32,217,37,13,35,142,29,01,,,,10,19,307,*48
$GPGSV,4,2,13,11,,,,15,61,185,,17,34,075,,18,,,*78
$GPGSV,4,3,13,19,33,106,,20,21,277,,24,64,295,,25,,,*4D
$GPGSV,4,4,13,28,15,046,*47
$GLGSV,3,1,10,78,67,310,24,,,,31,86,16,025,32,67,23,185,20*5F
$GLGSV,3,2,10,77,40,049,,79,23,260,,69,33,320,,88,04,127,*69
$GLGSV,3,3,10,87,21,085,,68,58,248,*68
$GPGGA,082905.5,,,,,0,,,,,,,,*7B
$GPVTG,,T,,M,,N,,K,N*2C
$GPRMC,,V,,,,,,,,,,N*53
$GPGSA,A,1,,,,,,,,,,,,,,,*1E
$GNGSA,A,1,,,,,,,,,,,,,,,*00
$GPGSV,3,1,12,12,32,217,37,13,35,142,30,01,,,,10,19,307,*46
$GPGSV,3,2,12,11,,,,17,34,075,,18,,,,19,33,106,*7E
$GPGSV,3,3,12,20,21,277,,24,64,295,,25,,,,28,15,046,*48
$GLGSV,3,1,10,78,67,310,24,,,,31,86,16,025,32,67,23,185,22*5D
$GLGSV,3,2,10,77,40,049,,79,23,260,,69,33,320,,88,04,127,*69
$GLGSV,3,3,10,87,21,085,,68,58,248,*68
$GPGGA,082906.5,,,,,0,,,,,,,,*78
$GPVTG,,T,,M,,N,,K,N*2C
$GPRMC,,V,,,,,,,,,,N*53
$GPGSA,A,1,,,,,,,,,,,,,,,*1E
$GNGSA,A,1,,,,,,,,,,,,,,,*00
$GPGSV,4,1,13,12,32,217,38,13,35,142,29,01,,,,10,19,307,*47
$GPGSV,4,2,13,11,,,,15,61,185,,17,34,075,,18,,,*78
$GPGSV,4,3,13,19,33,106,,20,21,277,,24,64,295,,25,,,*4D
$GPGSV,4,4,13,28,15,046,*47
$GLGSV,3,1,10,78,67,310,24,,,,31,86,16,025,32,67,23,185,23*5C
$GLGSV,3,2,10,77,40,049,,79,23,260,,69,33,320,,88,04,127,*69
$GLGSV,3,3,10,87,21,085,,68,58,248,*68
$GPGGA,082907.5,,,,,0,,,,,,,,*79
$GPVTG,,T,,M,,N,,K,N*2C
$GPRMC,,V,,,,,,,,,,N*53
$GPGSA,A,1,,,,,,,,,,,,,,,*1E
$GNGSA,A,1,,,,,,,,,,,,,,,*00
$GPGSV,4,1,13,12,32,217,38,13,35,142,29,01,,,,10,19,307,*47
$GPGSV,4,2,13,11,,,,15,61,185,,17,34,075,,18,,,*78
$GPGSV,4,3,13,19,33,106,,20,21,277,,24,64,295,,25,,,*4D
$GPGSV,4,4,13,28,15,046,*47
$GLGSV,3,1,10,78,67,310,24,,,,31,86,16,025,32,67,23,185,21*5E
$GLGSV,3,2,10,77,40,049,,79,23,260,,69,33,320,,88,04,127,*69
$GLGSV,3,3,10,87,21,085,,68,58,248,*68
$GPGGA,082908.5,,,,,0,,,,,,,,*76
$GPVTG,,T,,M,,N,,K,N*2C
$GPRMC,,V,,,,,,,,,,N*53
$GPGSA,A,1,,,,,,,,,,,,,,,*1E
$GNGSA,A,1,,,,,,,,,,,,,,,*00
$GPGSV,4,1,13,12,32,217,38,13,35,142,29,01,,,,10,19,307,*47
$GPGSV,4,2,13,11,,,,15,61,185,,17,34,075,,18,,,*78
$GPGSV,4,3,13,19,33,106,,20,21,277,,24,64,295,,25,,,*4D
$GPGSV,4,4,13,28,15,046,*47
$GLGSV,3,1,10,78,67,310,24,,,,31,86,16,025,32,67,23,185,21*5E
$GLGSV,3,2,10,77,40,049,,79,23,260,,69,33,320,,88,04,127,*69
$GLGSV,3,3,10,87,21,085,,68,58,248,*68
$GPGGA,082909.5,,,,,0,,,,,,,,*77
$GPVTG,,T,,M,,N,,K,N*2C
$GPRMC,,V,,,,,,,,,,N*53
$GPGSA,A,1,,,,,,,,,,,,,,,*1E
$GNGSA,A,1,,,,,,,,,,,,,,,*00
$GPGSV,4,1,13,12,32,217,37,13,35,142,28,01,,,,10,19,307,*49
$GPGSV,4,2,13,11,,,,15,61,185,,17,34,075,,18,,,*78
$GPGSV,4,3,13,19,33,106,,20,21,277,,24,64,295,,25,,,*4D
$GPGSV,4,4,13,28,15,046,*47
$GLGSV,3,1,10,78,67,310,24,,,,31,86,16,025,32,67,23,185,20*5F
$GLGSV,3,2,10,77,40,049,,79,23,260,,69,33,320,,88,04,127,*69
$GLGSV,3,3,10,87,21,085,,68,58,248,*68
$GPGGA,082910.5,,,,,0,,,,,,,,*7F
$GPVTG,,T,,M,,N,,K,N*2C
$GPRMC,,V,,,,,,,,,,N*53
$GPGSA,A,1,,,,,,,,,,,,,,,*1E
$GNGSA,A,1,,,,,,,,,,,,,,,*00
$GPGSV,4,1,13,12,32,217,37,13,35,142,28,01,,,,10,19,307,*49
$GPGSV,4,2,13,11,,,,15,61,185,,17,34,075,,18,,,*78
$GPGSV,4,3,13,19,33,106,,20,21,277,,24,64,295,,25,,,*4D
$GPGSV,4,4,13,28,15,046,*47
$GLGSV,3,1,10,78,67,310,24,,,,31,86,16,025,32,67,23,185,21*5E
$GLGSV,3,2,10,77,40,049,,79,23,260,,69,33,320,,88,04,127,*69
$GLGSV,3,3,10,87,21,085,,68,58,248,*68
$GPGGA,082911.5,,,,,0,,,,,,,,*7E
$GPVTG,,T,,M,,N,,K,N*2C
$GPRMC,,V,,,,,,,,,,N*53
$GPGSA,A,1,,,,,,,,,,,,,,,*1E
$GNGSA,A,1,,,,,,,,,,,,,,,*00
$GPGSV,4,1,13,12,32,217,37,13,35,142,28,01,,,,10,19,307,*49
$GPGSV,4,2,13,11,,,,15,61,185,,17,34,075,,18,,,*78
$GPGSV,4,3,13,19,33,106,,20,21,277,,24,64,295,,25,,,*4D
$GPGSV,4,4,13,28,15,046,*47
$GLGSV,3,1,10,78,67,310,24,,,,31,86,16,025,32,67,23,185,22*5D
$GLGSV,3,2,10,77,40,049,,79,23,260,,69,33,320,,88,04,127,*69
$GLGSV,3,3,10,87,21,085,,68,58,248,*68
$GPGGA,082912.5,,,,,0,,,,,,,,*7D
$GPVTG,,T,,M,,N,,K,N*2C
$GPRMC,,V,,,,,,,,,,N*53
$GPGSA,A,1,,,,,,,,,,,,,,,*1E
$GNGSA,A,1,,,,,,,,,,,,,,,*00
$GPGSV,4,1,13,12,32,217,37,13,35,142,28,01,,,,10,19,306,*48
$GPGSV,4,2,13,11,,,,15,61,185,,17,34,075,,18,,,*78
$GPGSV,4,3,13,19,33,106,,20,21,277,,24,64,295,,25,,,*4D
$GPGSV,4,4,13,28,15,046,*47
$GLGSV,3,1,10,78,67,310,24,,,,31,86,16,025,32,67,23,185,21*5E
$GLGSV,3,2,10,77,40,049,,79,23,260,,69,33,320,,88,04,127,*69
$GLGSV,3,3,10,87,21,085,,68,58,248,*68
$GPGGA,082913.5,,,,,0,,,,,,,,*7C
$GPVTG,,T,,M,,N,,K,N*2C
$GPRMC,,V,,,,,,,,,,N*53
$GPGSA,A,1,,,,,,,,,,,,,,,*1E
$GNGSA,A,1,,,,,,,,,,,,,,,*00
$GPGSV,4,1,13,12,32,217,37,13,35,142,28,01,,,,10,19,306,*48
$GPGSV,4,2,13,11,,,,15,61,185,,17,34,075,,18,,,*78
$GPGSV,4,3,13,19,33,106,,20,21,277,,24,64,295,,25,,,*4D
$GPGSV,4,4,13,28,15,046,*47
$GLGSV,3,1,10,78,67,310,24,,,,31,86,16,025,32,67,23,185,21*5E
$GLGSV,3,2,10,77,40,049,,79,23,260,,69,33,320,,88,04,127,*69
$GLGSV,3,3,10,87,21,085,,68,58,248,*68
$GPGGA,082914.5,,,,,0,,,,,,,,*7B
$GPVTG,,T,,M,,N,,K,N*2C
$GPRMC,,V,,,,,,,,,,N*53
$GPGSA,A,1,,,,,,,,,,,,,,,*1E
$GNGSA,A,1,,,,,,,,,,,,,,,*00
$GPGSV,4,1,13,12,32,217,37,13,35,142,28,01,,,,10,19,306,*48
$GPGSV,4,2,13,11,,,,15,61,185,,17,34,075,,18,,,*78
$GPGSV,4,3,13,19,33,106,,20,21,277,,24,64,295,,25,,,*4D
$GPGSV,4,4,13,28,15,046,*47
$GLGSV,3,1,10,78,67,310,24,,,,31,86,16,025,32,67,23,185,20*5F
$GLGSV,3,2,10,77,40,049,,79,23,260,,69,33,320,,88,04,127,*69
$GLGSV,3,3,10,87,21,085,,68,58,248,*68
$GPGGA,082915.5,,,,,0,,,,,,,,*7A
$GPVTG,,T,,M,,N,,K,N*2C
$GPRMC,,V,,,,,,,,,,N*53
$GPGSA,A,1,,,,,,,,,,,,,,,*1E
$GNGSA,A,1,,,,,,,,,,,,,,,*00
$GPGSV,4,1,13,12,32,217,37,13,35,142,28,01,,,,10,19,306,*48
$GPGSV,4,2,13,11,,,,15,61,185,,17,34,075,,18,,,*78
$GPGSV,4,3,13,19,33,106,,20,21,277,,24,64,295,,25,,,*4D
$GPGSV,4,4,13,28,15,046,*47
$GLGSV,3,1,10,78,67,310,24,,,,31,86,16,025,32,67,23,185,18*54
$GLGSV,3,2,10,77,40,049,,79,23,260,,69,33,320,,88,04,127,*69
$GLGSV,3,3,10,87,21,085,,68,58,248,*68
$GPGGA,082916.5,,,,,0,,,,,,,,*79
$GPVTG,,T,,M,,N,,K,N*2C
$GPRMC,,V,,,,,,,,,,N*53
$GPGSA,A,1,,,,,,,,,,,,,,,*1E
$GNGSA,A,1,,,,,,,,,,,,,,,*00
$GPGSV,4,1,13,12,32,217,37,13,35,142,27,01,,,,10,19,306,*47
$GPGSV,4,2,13,11,,,,15,61,185,,17,34,075,,18,,,*78
$GPGSV,4,3,13,19,33,106,,20,21,277,,24,64,295,,25,,,*4D
$GPGSV,4,4,13,28,15,046,*47
$GLGSV,3,1,10,78,67,310,24,,,,31,86,16,025,32,67,23,185,17*5B
$GLGSV,3,2,10,77,40,049,,79,23,260,,69,33,320,,88,04,127,*69
$GLGSV,3,3,10,87,21,085,,68,58,248,*68
$GPGGA,082917.5,,,,,0,,,,,,,,*78
$GPVTG,,T,,M,,N,,K,N*2C
$GPRMC,,V,,,,,,,,,,N*53
$GPGSA,A,1,,,,,,,,,,,,,,,*1E
$GNGSA,A,1,,,,,,,,,,,,,,,*00
$GPGSV,4,1,13,12,32,217,36,13,35,142,27,01,,,,10,19,306,*46
$GPGSV,4,2,13,11,,,,15,61,185,,17,34,075,,18,,,*78
$GPGSV,4,3,13,19,33,106,,20,21,277,,24,64,295,,25,,,*4D
$GPGSV,4,4,13,28,15,046,*47
$GLGSV,3,1,10,78,67,310,24,,,,31,86,16,025,32,67,23,185,17*5B
$GLGSV,3,2,10,77,40,049,,79,23,260,,69,33,320,,88,04,127,*69
$GLGSV,3,3,10,87,21,085,,68,58,248,*68
$GPGGA,082918.5,,,,,0,,,,,,,,*77
$GPVTG,,T,,M,,N,,K,N*2C
$GPRMC,,V,,,,,,,,,,N*53
$GPGSA,A,1,,,,,,,,,,,,,,,*1E
$GNGSA,A,1,,,,,,,,,,,,,,,*00
$GPGSV,4,1,13,12,32,217,35,13,35,142,26,01,,,,10,19,306,*44
$GPGSV,4,2,13,11,,,,15,61,185,,17,34,075,,18,,,*78
$GPGSV,4,3,13,19,33,106,,20,21,277,,24,64,295,,25,,,*4D
$GPGSV,4,4,13,28,15,046,*47
$GLGSV,3,1,10,78,67,310,24,,,,31,86,16,025,32,67,23,185,15*59
$GLGSV,3,2,10,77,40,049,,79,23,260,,69,33,320,,88,04,127,*69
$GLGSV,3,3,10,87,21,085,,68,58,248,*68
$GPGGA,082919.5,,,,,0,,,,,,,,*76
$GPVTG,,T,,M,,N,,K,N*2C
$GPRMC,,V,,,,,,,,,,N*53
$GPGSA,A,1,,,,,,,,,,,,,,,*1E
$GNGSA,A,1,,,,,,,,,,,,,,,*00
$GPGSV,4,1,13,12,32,217,36,13,35,142,26,01,,,,10,19,306,*47
$GPGSV,4,2,13,11,,,,15,61,185,,17,34,075,,18,,,*78
$GPGSV,4,3,13,19,33,106,,20,21,277,,24,64,295,,25,,,*4D
$GPGSV,4,4,13,28,15,046,*47
$GLGSV,3,1,10,78,67,310,24,,,,31,86,16,025,32,67,23,185,16*5A
$GLGSV,3,2,10,77,40,049,,79,23,260,,69,33,320,,88,04,127,*69
$GLGSV,3,3,10,87,21,085,,68,58,248,*68
$GPGGA,082920.5,,,,,0,,,,,,,,*7C
$GPVTG,,T,,M,,N,,K,N*2C
$GPRMC,,V,,,,,,,,,,N*53
$GPGSA,A,1,,,,,,,,,,,,,,,*1E
$GNGSA,A,1,,,,,,,,,,,,,,,*00
$GPGSV,4,1,13,12,32,217,36,13,35,142,26,01,,,,10,19,306,*47
$GPGSV,4,2,13,11,,,,15,61,185,,17,34,075,,18,,,*78
$GPGSV,4,3,13,19,33,106,,20,21,277,,24,64,295,,25,,,*4D
$GPGSV,4,4,13,28,15,046,*47
$GLGSV,3,1,10,78,67,310,24,,,,31,86,16,025,32,67,23,185,16*5A
$GLGSV,3,2,10,77,40,049,,79,23,260,,69,33,320,,88,04,127,*69
$GLGSV,3,3,10,87,21,085,,68,58,248,*68
$GPGGA,082921.5,,,,,0,,,,,,,,*7D
$GPVTG,,T,,M,,N,,K,N*2C
$GPRMC,,V,,,,,,,,,,N*53
$GPGSA,A,1,,,,,,,,,,,,,,,*1E
$GNGSA,A,1,,,,,,,,,,,,,,,*00
$GPGSV,4,1,13,12,32,217,37,13,35,142,26,01,,,,10,19,306,*46
$GPGSV,4,2,13,11,,,,15,61,185,,17,34,075,,18,,,*78
$GPGSV,4,3,13,19,33,106,,20,21,277,,24,64,295,,25,,,*4D
$GPGSV,4,4,13,28,15,046,*47
$GLGSV,3,1,10,78,67,310,24,,,,31,86,16,025,32,67,23,185,16*5A
$GLGSV,3,2,10,77,40,049,,79,23,260,,69,33,320,,88,04,127,*69
$GLGSV,3,3,10,87,21,085,,68,58,248,*68
$GPGGA,082922.5,,,,,0,,,,,,,,*7E
$GPVTG,,T,,M,,N,,K,N*2C
$GPRMC,,V,,,,,,,,,,N*53
$GPGSA,A,1,,,,,,,,,,,,,,,*1E
$GNGSA,A,1,,,,,,,,,,,,,,,*00
$GPGSV,4,1,13,12,32,217,36,13,35,142,27,01,,,,10,19,306,*46
$GPGSV,4,2,13,11,,,,15,61,185,,17,34,075,,18,,,*78
$GPGSV,4,3,13,19,33,106,,20,21,277,,24,64,295,,25,,,*4D
$GPGSV,4,4,13,28,15,046,*47
$GLGSV,3,1,10,78,67,310,24,,,,31,86,16,025,32,67,23,185,16*5A
$GLGSV,3,2,10,77,40,049,,79,23,260,,69,33,320,,88,04,127,*69
$GLGSV,3,3,10,87,21,085,,68,58,248,*68
$GPGGA,082923.5,,,,,0,,,,,,,,*7F
$GPVTG,,T,,M,,N,,K,N*2C
$GPRMC,,V,,,,,,,,,,N*53
$GPGSA,A,1,,,,,,,,,,,,,,,*1E
$GNGSA,A,1,,,,,,,,,,,,,,,*00
$GPGSV,4,1,13,12,32,217,36,13,35,142,26,01,,,,10,19,306,*47
$GPGSV,4,2,13,11,,,,15,61,185,,17,34,075,,18,,,*78
$GPGSV,4,3,13,19,33,106,,20,21,277,,24,64,295,,25,,,*4D
$GPGSV,4,4,13,28,15,046,*47
$GLGSV,3,1,10,78,67,310,24,,,,31,86,16,025,32,67,23,185,17*5B
$GLGSV,3,2,10,77,40,049,,79,23,260,,69,33,320,,88,04,127,*69
$GLGSV,3,3,10,87,21,085,,68,58,248,*68
$GPGGA,082924.5,,,,,0,,,,,,,,*78
$GPVTG,,T,,M,,N,,K,N*2C
$GPRMC,,V,,,,,,,,,,N*53
$GPGSA,A,1,,,,,,,,,,,,,,,*1E
$GNGSA,A,1,,,,,,,,,,,,,,,*00
$GPGSV,4,1,13,12,32,217,36,13,35,142,26,01,,,,10,19,306,*47
$GPGSV,4,2,13,11,,,,15,61,185,,17,34,075,,18,,,*78
$GPGSV,4,3,13,19,33,106,,20,21,277,,24,64,295,,25,,,*4D
$GPGSV,4,4,13,28,15,046,*47
$GLGSV,3,1,10,78,67,310,24,,,,31,86,16,025,32,67,23,185,20*5F
$GLGSV,3,2,10,77,40,049,,79,23,260,,69,33,320,,88,04,127,*69
$GLGSV,3,3,10,87,21,085,,68,58,248,*68
$GPGGA,082925.5,,,,,0,,,,,,,,*79
$GPVTG,,T,,M,,N,,K,N*2C
$GPRMC,,V,,,,,,,,,,N*53
$GPGSA,A,1,,,,,,,,,,,,,,,*1E
$GNGSA,A,1,,,,,,,,,,,,,,,*00
$GPGSV,4,1,13,12,32,217,36,13,35,142,27,01,,,,10,19,306,*46
$GPGSV,4,2,13,11,,,,15,61,185,,17,34,075,,18,,,*78
$GPGSV,4,3,13,19,33,106,,20,21,277,,24,64,295,,25,,,*4D
$GPGSV,4,4,13,28,15,046,*47
$GLGSV,3,1,10,78,67,310,24,,,,31,86,16,025,32,67,23,185,19*55
$GLGSV,3,2,10,77,40,049,,79,23,260,,69,33,320,,88,04,127,*69
$GLGSV,3,3,10,87,21,085,,68,58,248,*68
$GPGGA,082926.5,,,,,0,,,,,,,,*7A
$GPVTG,,T,,M,,N,,K,N*2C
$GPRMC,,V,,,,,,,,,,N*53
$GPGSA,A,1,,,,,,,,,,,,,,,*1E
$GNGSA,A,1,,,,,,,,,,,,,,,*00
$GPGSV,4,1,13,12,32,217,36,13,35,142,26,15,61,185,25,01,,,*43
$GPGSV,4,2,13,10,19,306,,11,,,,17,34,075,,18,,,*7B
$GPGSV,4,3,13,19,33,106,,20,21,277,,24,64,295,,25,,,*4D
$GPGSV,4,4,13,28,15,046,*47
$GLGSV,3,1,10,78,67,310,24,,,,31,86,16,025,32,67,23,185,19*55
$GLGSV,3,2,10,77,40,049,,79,23,260,,69,33,320,,88,04,127,*69
$GLGSV,3,3,10,87,21,085,,68,58,248,*68
$GPGGA,082927.5,,,,,0,,,,,,,,*7B
$GPVTG,,T,,M,,N,,K,N*2C
$GPRMC,,V,,,,,,,,,,N*53
$GPGSA,A,1,,,,,,,,,,,,,,,*1E
$GNGSA,A,1,,,,,,,,,,,,,,,*00
$GPGSV,4,1,13,12,32,217,36,13,35,142,26,15,61,185,25,01,,,*43
$GPGSV,4,2,13,10,19,306,,11,,,,17,34,075,,18,,,*7B
$GPGSV,4,3,13,19,33,106,,20,21,277,,24,64,295,,25,,,*4D
$GPGSV,4,4,13,28,15,046,*47
$GLGSV,3,1,10,78,67,310,24,,,,31,86,16,025,32,67,23,185,20*5F
$GLGSV,3,2,10,77,40,049,,79,23,260,,69,33,320,,88,04,127,*69
$GLGSV,3,3,10,87,21,085,,68,58,248,*68
$GPGGA,082928.5,,,,,0,,,,,,,,*74
$GPVTG,,T,,M,,N,,K,N*2C
$GPRMC,,V,,,,,,,,,,N*53
$GPGSA,A,1,,,,,,,,,,,,,,,*1E
$GNGSA,A,1,,,,,,,,,,,,,,,*00
$GPGSV,4,1,13,12,32,217,36,13,35,142,27,15,61,185,27,01,,,*40
$GPGSV,4,2,13,10,19,306,,11,,,,17,34,075,,18,,,*7B
$GPGSV,4,3,13,19,33,106,,20,21,277,,24,64,295,,25,,,*4D
$GPGSV,4,4,13,28,15,046,*47
$GLGSV,3,1,10,78,67,310,24,,,,31,86,16,025,32,67,23,185,21*5E
$GLGSV,3,2,10,77,40,049,,79,23,260,,69,33,320,,88,04,127,*69
$GLGSV,3,3,10,87,21,085,,68,58,248,*68
$GPGGA,082928.5,,,,,0,,,,,,,,*74
$GPVTG,,T,,M,,N,,K,N*2C
$GPRMC,,V,,,,,,,,,,N*53
$GPGSA,A,1,,,,,,,,,,,,,,,*1E
$GNGSA,A,1,,,,,,,,,,,,,,,*00
$GPGSV,4,1,13,12,32,217,36,13,35,142,27,15,61,185,27,01,,,*40
$GPGSV,4,2,13,10,19,306,,11,,,,17,34,075,,18,,,*7B
$GPGSV,4,3,13,19,33,106,,20,21,277,,24,64,295,,25,,,*4D
$GPGSV,4,4,13,28,15,046,*47
$GLGSV,3,1,10,78,67,310,24,,,,31,86,16,025,32,67,23,185,21*5E
$GLGSV,3,2,10,77,40,049,,79,23,260,,69,33,320,,88,04,127,*69
$GLGSV,3,3,10,87,21,085,,68,58,248,*68
$GPGGA,082929.5,,,,,0,,,,,,,,*75
$GPVTG,,T,,M,,N,,K,N*2C
$GPRMC,,V,,,,,,,,,,N*53
$GPGSA,A,1,,,,,,,,,,,,,,,*1E
$GNGSA,A,1,,,,,,,,,,,,,,,*00
$GPGSV,3,1,10,12,36,213,36,13,34,135,26,15,64,172,26,10,21,306,*7E
$GPGSV,3,2,10,17,30,071,,19,30,099,,20,25,275,,24,66,303,*72
$GPGSV,3,3,10,25,02,222,,28,11,043,*72
$GLGSV,2,1,08,,,,31,67,25,180,20,77,35,046,,79,27,258,*51
$GLGSV,2,2,08,69,33,322,,88,03,122,,87,18,080,,68,63,247,*67
$GPGGA,082930.0,,,,,0,,,,,,,,*78
$GPVTG,,T,,M,,N,,K,N*2C
$GPRMC,,V,,,,,,,,,,N*53
$GPGSA,A,1,,,,,,,,,,,,,,,*1E
$GNGSA,A,1,,,,,,,,,,,,,,,*00
$GPGSV,3,1,10,12,36,213,36,13,34,135,27,15,64,172,27,10,21,306,*7E
$GPGSV,3,2,10,17,30,071,,19,30,099,,20,25,275,,24,66,303,*72
$GPGSV,3,3,10,25,02,222,,28,11,043,*72
$GLGSV,3,1,10,,,,31,67,25,180,23,78,68,322,,86,12,022,*55
$GLGSV,3,2,10,77,34,046,,79,27,258,,69,33,322,,88,03,122,*6A
$GLGSV,3,3,10,87,18,080,,68,63,247,*60
$GPGGA,082931.0,,,,,0,,,,,,,,*79
$GPVTG,,T,,M,,N,,K,N*2C
$GPRMC,,V,,,,,,,,,,N*53
$GPGSA,A,1,,,,,,,,,,,,,,,*1E
$GNGSA,A,1,,,,,,,,,,,,,,,*00
$GPGSV,3,1,10,12,36,213,36,13,34,135,26,15,64,172,26,10,21,306,*7E
$GPGSV,3,2,10,17,30,071,,19,30,099,,20,25,275,,24,66,303,*72
$GPGSV,3,3,10,25,02,222,,28,11,043,*72
$GLGSV,3,1,10,,,,31,67,25,180,23,78,68,322,,86,12,022,*55
$GLGSV,3,2,10,77,34,046,,79,27,258,,69,33,322,,88,03,122,*6A
$GLGSV,3,3,10,87,18,080,,68,63,247,*60
$GPGGA,082932.0,,,,,0,,,,,,,,*7A
$GPVTG,,T,,M,,N,,K,N*2C
$GPRMC,,V,,,,,,,,,,N*53
$GPGSA,A,1,,,,,,,,,,,,,,,*1E
$GNGSA,A,1,,,,,,,,,,,,,,,*00
$GPGSV,3,1,10,12,36,213,36,13,34,135,23,15,64,172,26,10,21,306,*7B
$GPGSV,3,2,10,17,30,071,,19,30,099,,20,25,275,,24,66,303,*72
$GPGSV,3,3,10,25,02,222,,28,11,043,*72
$GLGSV,3,1,10,,,,31,67,25,180,23,78,68,322,,86,12,022,*55
$GLGSV,3,2,10,77,34,046,,79,27,258,,69,33,322,,88,03,122,*6A
$GLGSV,3,3,10,87,18,080,,68,63,247,*60
$GPGGA,082933.0,,,,,0,,,,,,,,*7B
$GPVTG,,T,,M,,N,,K,N*2C
$GPRMC,,V,,,,,,,,,,N*53
$GPGSA,A,1,,,,,,,,,,,,,,,*1E
$GNGSA,A,1,,,,,,,,,,,,,,,*00
$GPGSV,3,1,10,12,36,213,37,13,34,135,24,15,64,172,27,10,21,306,*7C
$GPGSV,3,2,10,17,30,071,,19,30,099,,20,25,275,,24,66,303,*72
$GPGSV,3,3,10,25,02,222,,28,11,043,*72
$GLGSV,3,1,10,,,,31,67,25,180,22,78,68,322,,86,12,022,*54
$GLGSV,3,2,10,77,34,046,,79,27,258,,69,33,322,,88,03,122,*6A
$GLGSV,3,3,10,87,18,080,,68,63,247,*60
$GPGGA,082934.0,,,,,0,,,,,,,,*7C
$GPVTG,,T,,M,,N,,K,N*2C
$GPRMC,,V,,,,,,,,,,N*53
$GPGSA,A,1,,,,,,,,,,,,,,,*1E
$GNGSA,A,1,,,,,,,,,,,,,,,*00
$GPGSV,3,1,10,12,36,213,35,13,34,135,22,15,64,172,25,10,21,306,*7A
$GPGSV,3,2,10,17,30,071,,19,30,099,,20,25,275,,24,66,303,*72
$GPGSV,3,3,10,25,02,222,,28,11,043,*72
$GLGSV,3,1,10,,,,31,67,25,180,21,78,68,322,,86,12,022,*57
$GLGSV,3,2,10,77,34,046,,79,27,258,,69,33,322,,88,03,122,*6A
$GLGSV,3,3,10,87,18,080,,68,63,247,*60
$GPGGA,082935.0,,,,,0,,,,,,,,*7D
$GPVTG,,T,,M,,N,,K,N*2C
$GPRMC,,V,,,,,,,,,,N*53
$GPGSA,A,1,,,,,,,,,,,,,,,*1E
$GNGSA,A,1,,,,,,,,,,,,,,,*00
$GPGSV,3,1,10,12,36,213,35,13,34,135,22,15,64,172,25,10,21,306,*7A
$GPGSV,3,2,10,17,30,071,,19,30,099,,20,25,275,,24,66,303,*72
$GPGSV,3,3,10,25,02,222,,28,11,043,*72
$GLGSV,3,1,10,,,,31,67,25,180,21,78,68,322,,86,12,022,*57
$GLGSV,3,2,10,77,34,046,,79,27,258,,69,33,322,,88,03,122,*6A
$GLGSV,3,3,10,87,18,080,,68,63,247,*60
$GPGGA,082936.0,,,,,0,,,,,,,,*7E
$GPVTG,,T,,M,,N,,K,N*2C
$GPRMC,,V,,,,,,,,,,N*53
$GPGSA,A,1,,,,,,,,,,,,,,,*1E
$GNGSA,A,1,,,,,,,,,,,,,,,*00
$GPGSV,3,1,10,12,36,213,35,13,34,135,22,15,64,172,24,10,21,306,*7B
$GPGSV,3,2,10,17,30,071,,19,30,099,,20,25,275,,24,66,303,*72
$GPGSV,3,3,10,25,02,222,,28,11,043,*72
$GLGSV,3,1,10,,,,31,67,25,180,22,78,68,322,,86,12,022,*54
$GLGSV,3,2,10,77,34,046,,79,27,258,,69,33,322,,88,03,122,*6A
$GLGSV,3,3,10,87,18,080,,68,63,247,*60
$GPGGA,082937.0,,,,,0,,,,,,,,*7F
$GPVTG,,T,,M,,N,,K,N*2C
$GPRMC,,V,,,,,,,,,,N*53
$GPGSA,A,1,,,,,,,,,,,,,,,*1E
$GNGSA,A,1,,,,,,,,,,,,,,,*00
$GPGSV,3,1,10,12,36,213,36,13,34,135,21,15,64,172,25,10,21,306,*7A
$GPGSV,3,2,10,17,30,071,,19,30,099,,20,25,275,,24,66,303,*72
$GPGSV,3,3,10,25,02,222,,28,11,043,*72
$GLGSV,3,1,10,,,,31,67,25,180,24,78,68,322,,86,12,022,*52
$GLGSV,3,2,10,77,34,046,,79,27,258,,69,33,322,,88,03,122,*6A
$GLGSV,3,3,10,87,18,080,,68,63,247,*60
$GPGGA,082938.0,,,,,0,,,,,,,,*70
$GPVTG,,T,,M,,N,,K,N*2C
$GPRMC,,V,,,,,,,,,,N*53
$GPGSA,A,1,,,,,,,,,,,,,,,*1E
$GNGSA,A,1,,,,,,,,,,,,,,,*00
$GPGSV,3,1,10,12,36,213,36,13,34,135,21,15,64,172,26,10,21,306,*79
$GPGSV,3,2,10,17,30,071,,19,30,099,,20,25,275,,24,66,303,*72
$GPGSV,3,3,10,25,02,222,,28,11,043,*72
$GLGSV,3,1,10,,,,31,67,25,180,25,78,68,322,,86,12,022,*53
$GLGSV,3,2,10,77,34,046,,79,27,258,,69,33,322,,88,03,122,*6A
$GLGSV,3,3,10,87,18,080,,68,63,247,*60
$GPGGA,082939.0,,,,,0,,,,,,,,*71
$GPVTG,,T,,M,,N,,K,N*2C
$GPRMC,,V,,,,,,,,,,N*53
$GPGSA,A,1,,,,,,,,,,,,,,,*1E
$GNGSA,A,1,,,,,,,,,,,,,,,*00
$GPGSV,3,1,10,12,36,213,36,13,34,135,21,15,64,172,25,25,02,222,13*78
$GPGSV,3,2,10,10,21,306,,17,30,071,,19,30,099,,20,25,275,*73
$GPGSV,3,3,10,24,66,303,,28,11,043,*73
$GLGSV,3,1,10,,,,31,67,25,180,25,78,68,322,,86,12,022,*53
$GLGSV,3,2,10,77,34,046,,79,27,258,,69,33,322,,88,03,122,*6A
$GLGSV,3,3,10,87,18,080,,68,63,247,*60
$GPGGA,082940.0,,,,,0,,,,,,,,*7F
$GPVTG,,T,,M,,N,,K,N*2C
$GPRMC,,V,,,,,,,,,,N*53
$GPGSA,A,1,,,,,,,,,,,,,,,*1E
$GNGSA,A,1,,,,,,,,,,,,,,,*00
$GPGSV,2,1,08,12,36,213,36,13,34,135,20,15,64,172,26,24,66,303,14*74
$GPGSV,2,2,08,25,02,222,13,01,,,,10,21,306,,11,,,*72
$GLGSV,3,1,10,,,,31,67,25,180,25,78,68,322,,86,12,022,*53
$GLGSV,3,2,10,77,34,046,,79,27,258,,69,33,322,,88,03,122,*6A
$GLGSV,3,3,10,87,18,080,,68,63,247,*60
$GPGGA,082941.0,,,,,0,,,,,,,,*7E
$GPVTG,,T,,M,,N,,K,N*2C
$GPRMC,,V,,,,,,,,,,N*53
$GPGSA,A,1,,,,,,,,,,,,,,,*1E
$GNGSA,A,1,,,,,,,,,,,,,,,*00
$GPGSV,2,1,08,12,36,213,36,13,34,135,20,15,64,172,26,24,66,303,14*74
$GPGSV,2,2,08,25,02,222,13,01,,,,10,21,306,,11,,,*72
$GLGSV,3,1,10,,,,31,67,25,180,26,78,68,323,,86,12,022,*51
$GLGSV,3,2,10,77,34,046,,79,27,258,,69,33,322,,88,04,122,*6D
$GLGSV,3,3,10,87,18,080,,68,63,246,*61
$GPGGA,082942.0,,,,,0,,,,,,,,*7D
$GPVTG,,T,,M,,N,,K,N*2C
$GPRMC,,V,,,,,,,,,,N*53
$GPGSA,A,1,,,,,,,,,,,,,,,*1E
$GNGSA,A,1,,,,,,,,,,,,,,,*00
$GPGSV,2,1,08,12,36,213,36,13,34,135,20,15,64,172,26,24,66,303,14*74
$GPGSV,2,2,08,25,02,222,13,01,,,,10,21,306,,11,,,*72
$GLGSV,3,1,10,,,,31,67,25,180,25,78,68,323,,86,12,022,*52
$GLGSV,3,2,10,77,34,046,,79,27,258,,69,33,322,,88,04,122,*6D
$GLGSV,3,3,10,87,18,080,,68,63,246,*61
$GPGGA,082943.0,,,,,0,,,,,,,,*7C
$GPVTG,,T,,M,,N,,K,N*2C
$GPRMC,,V,,,,,,,,,,N*53
$GPGSA,A,1,,,,,,,,,,,,,,,*1E
$GNGSA,A,1,,,,,,,,,,,,,,,*00
$GPGSV,2,1,08,12,36,213,36,13,34,135,19,15,64,172,26,24,66,303,14*7E
$GPGSV,2,2,08,25,02,222,13,01,,,,10,21,306,,11,,,*72
$GLGSV,3,1,10,,,,31,67,25,180,26,78,68,323,,86,12,022,*51
$GLGSV,3,2,10,77,34,046,,79,27,258,,69,33,322,,88,04,122,*6D
$GLGSV,3,3,10,87,18,080,,68,63,246,*61
$GPGGA,082944.0,,,,,0,,,,,,,,*7B
$GPVTG,,T,,M,,N,,K,N*2C
$GPRMC,,V,,,,,,,,,,N*53
$GPGSA,A,1,,,,,,,,,,,,,,,*1E
$GNGSA,A,1,,,,,,,,,,,,,,,*00
$GPGSV,2,1,08,12,36,213,36,13,34,135,16,15,64,172,26,24,66,303,15*70
$GPGSV,2,2,08,25,02,222,13,01,,,,10,21,306,,11,,,*72
$GLGSV,3,1,10,,,,31,67,25,180,25,78,68,323,,86,12,022,*52
$GLGSV,3,2,10,77,34,046,,79,27,258,,69,33,322,,88,04,122,*6D
$GLGSV,3,3,10,87,18,080,,68,63,246,*61
$GPGGA,082945.0,,,,,0,,,,,,,,*7A
$GPVTG,,T,,M,,N,,K,N*2C
$GPRMC,,V,,,,,,,,,,N*53
$GPGSA,A,1,,,,,,,,,,,,,,,*1E
$GNGSA,A,1,,,,,,,,,,,,,,,*00
$GPGSV,3,1,10,12,36,213,35,13,34,135,18,15,64,172,26,24,66,303,15*75
$GPGSV,3,2,10,25,02,222,13,10,21,306,,17,30,070,,19,30,099,*72
$GPGSV,3,3,10,20,24,275,,28,11,043,*71
$GLGSV,3,1,10,,,,31,67,25,180,25,78,68,323,,86,12,022,*52
$GLGSV,3,2,10,77,34,046,,79,27,258,,69,33,322,,88,04,122,*6D
$GLGSV,3,3,10,87,18,080,,68,63,246,*61
$GPGGA,082946.0,,,,,0,,,,,,,,*79
$GPVTG,,T,,M,,N,,K,N*2C
$GPRMC,,V,,,,,,,,,,N*53
$GPGSA,A,1,,,,,,,,,,,,,,,*1E
$GNGSA,A,1,,,,,,,,,,,,,,,*00
$GPGSV,3,1,10,12,36,213,34,13,34,135,18,15,64,172,25,24,66,303,15*77
$GPGSV,3,2,10,25,02,222,13,10,21,306,,17,30,070,,19,30,099,*72
$GPGSV,3,3,10,20,24,275,,28,11,043,*71
$GLGSV,3,1,10,,,,31,67,25,180,25,78,68,323,,86,12,022,*52
$GLGSV,3,2,10,77,34,046,,79,27,258,,69,33,322,,88,04,122,*6D
$GLGSV,3,3,10,87,18,080,,68,63,246,*61
$GPGGA,082947.0,,,,,0,,,,,,,,*78
$GPVTG,,T,,M,,N,,K,N*2C
$GPRMC,,V,,,,,,,,,,N*53
$GPGSA,A,1,,,,,,,,,,,,,,,*1E
$GNGSA,A,1,,,,,,,,,,,,,,,*00
$GPGSV,3,1,10,12,36,213,34,13,34,135,24,15,64,172,25,24,66,303,15*78
$GPGSV,3,2,10,25,02,222,13,10,21,306,,17,30,070,,19,30,099,*72
$GPGSV,3,3,10,20,24,275,,28,11,043,*71
$GLGSV,3,1,09,67,25,180,27,78,68,323,,86,12,022,,77,34,046,*6F
$GLGSV,3,2,09,79,27,258,,69,33,322,,88,04,122,,87,18,080,*6E
$GLGSV,3,3,09,68,63,246,*57
$GPGGA,082948.0,,,,,0,,,,,,,,*77
$GPVTG,,T,,M,,N,,K,N*2C
$GPRMC,,V,,,,,,,,,,N*53
$GPGSA,A,1,,,,,,,,,,,,,,,*1E
$GNGSA,A,1,,,,,,,,,,,,,,,*00
$GPGSV,3,1,10,12,36,213,33,13,34,135,26,15,64,172,25,24,66,303,14*7C
$GPGSV,3,2,10,25,02,222,13,10,21,306,,17,30,070,,19,30,099,*72
$GPGSV,3,3,10,20,24,275,,28,11,043,*71
$GLGSV,3,1,09,67,25,180,25,68,63,246,12,78,68,323,,86,12,022,*60
$GLGSV,3,2,09,77,34,046,,79,27,258,,69,33,322,,88,04,122,*65
$GLGSV,3,3,09,87,18,080,*52
$GPGGA,082949.0,4445.565178,N,00037.248152,W,1,04,1.9,34.7,M,50.0,M,,*7C
$GPVTG,,T,,M,,N,,K,N*2C
$GPRMC,082949.0,A,4445.565178,N,00037.248152,W,,,300419,0.0,E,A*13
$GPGSA,A,2,12,13,15,24,,,,,,,,,2.1,1.9,1.0*3A
$GNGSA,A,2,12,13,15,24,,,,,,,,,2.1,1.9,1.0*24
$GNGSA,A,2,67,68,,,,,,,,,,,2.1,1.9,1.0*28
$GPGSV,3,1,10,12,36,213,31,13,34,135,27,15,64,172,25,24,66,303,14*7F
$GPGSV,3,2,10,25,02,222,13,10,21,306,,17,30,070,,19,30,099,*72
$GPGSV,3,3,10,20,24,275,,28,11,043,*71
$GLGSV,3,1,09,67,25,180,23,68,63,246,12,78,68,323,,86,12,022,*66
$GLGSV,3,2,09,77,34,046,,79,27,258,,69,33,322,,88,04,122,*65
$GLGSV,3,3,09,87,18,080,*52
$GPGGA,082950.0,4445.563885,N,00037.249286,W,1,04,1.9,43.7,M,50.0,M,,*72
$GPVTG,,T,,M,,N,,K,N*2C
$GPRMC,082950.0,A,4445.563885,N,00037.249286,W,,,300419,0.0,E,A*1D
$GPGSA,A,2,12,13,15,24,,,,,,,,,2.1,1.9,1.0*3A
$GNGSA,A,2,12,13,15,24,,,,,,,,,2.1,1.9,1.0*24
$GNGSA,A,2,67,68,,,,,,,,,,,2.1,1.9,1.0*28
$GPGSV,3,1,10,12,36,213,32,13,34,135,27,15,64,172,24,24,66,303,14*7D
$GPGSV,3,2,10,25,02,222,13,10,21,306,,17,30,070,,19,30,099,*72
$GPGSV,3,3,10,20,24,275,,28,11,043,*71
$GLGSV,3,1,09,67,25,180,20,68,63,246,12,78,68,323,,86,12,022,*65
$GLGSV,3,2,09,77,34,046,,79,27,258,,69,33,322,,88,04,122,*65
$GLGSV,3,3,09,87,18,080,*52
$GPGGA,082951.0,4445.563505,N,00037.250463,W,1,04,1.9,43.4,M,50.0,M,,*70
$GPVTG,,T,,M,,N,,K,N*2C
$GPRMC,082951.0,A,4445.563505,N,00037.250463,W,,,300419,0.0,E,A*1C
$GPGSA,A,2,12,13,15,24,,,,,,,,,2.1,1.9,1.0*3A
$GNGSA,A,2,12,13,15,24,,,,,,,,,2.1,1.9,1.0*24
$GNGSA,A,2,67,68,,,,,,,,,,,2.1,1.9,1.0*28
$GPGSV,3,1,10,12,36,213,31,13,34,135,27,15,64,172,24,24,66,303,14*7E
$GPGSV,3,2,10,25,02,222,13,10,21,306,,17,30,070,,19,30,099,*72
$GPGSV,3,3,10,20,24,275,,28,11,043,*71
$GLGSV,3,1,09,67,25,180,19,68,63,246,12,78,68,323,,86,12,022,*6F
$GLGSV,3,2,09,77,34,046,,79,27,258,,69,33,322,,88,04,122,*65
$GLGSV,3,3,09,87,18,080,*52
$GPGGA,082952.0,4445.564538,N,00037.252260,W,1,04,1.9,32.9,M,50.0,M,,*76
$GPVTG,,T,,M,,N,,K,N*2C
$GPRMC,082952.0,A,4445.564538,N,00037.252260,W,,,300419,0.0,E,A*11
$GPGSA,A,2,12,13,15,24,,,,,,,,,2.1,1.9,1.0*3A
$GNGSA,A,2,12,13,15,24,,,,,,,,,2.1,1.9,1.0*24
$GNGSA,A,2,67,68,,,,,,,,,,,2.1,1.9,1.0*28
$GPGSV,3,1,10,12,36,213,31,13,34,135,27,15,64,172,23,24,66,303,14*79
$GPGSV,3,2,10,25,02,222,13,10,21,306,,17,30,070,,19,30,099,*72
$GPGSV,3,3,10,20,24,275,,28,11,043,*71
$GLGSV,3,1,09,67,25,180,20,68,63,246,12,78,68,323,,86,12,022,*65
$GLGSV,3,2,09,77,34,046,,79,27,258,,69,33,322,,88,04,122,*65
$GLGSV,3,3,09,87,18,080,*52
$GPGGA,082953.0,4445.566275,N,00037.254604,W,1,04,1.9,26.9,M,50.0,M,,*7E
$GPVTG,,T,,M,,N,,K,N*2C
$GPRMC,082953.0,A,4445.566275,N,00037.254604,W,,,300419,0.0,E,A*1C
$GPGSA,A,2,12,13,15,24,,,,,,,,,2.1,1.9,1.0*3A
$GNGSA,A,2,12,13,15,24,,,,,,,,,2.1,1.9,1.0*24
$GNGSA,A,2,67,68,,,,,,,,,,,2.1,1.9,1.0*28
$GPGSV,3,1,10,12,36,213,31,13,34,135,27,15,64,172,23,24,66,303,14*79
$GPGSV,3,2,10,25,02,222,13,10,21,306,,17,30,070,,19,30,099,*72
$GPGSV,3,3,10,20,24,275,,28,11,043,*71
$GLGSV,3,1,09,67,25,180,19,68,63,246,10,78,68,323,,86,12,022,*6D
$GLGSV,3,2,09,77,34,046,,79,27,258,,69,33,322,,88,04,122,*65
$GLGSV,3,3,09,87,18,080,*52
$GPGGA,082954.0,4445.569510,N,00037.256839,W,1,04,1.9,18.4,M,50.0,M,,*70
$GPVTG,,T,,M,,N,,K,N*2C
$GPRMC,082954.0,A,4445.569510,N,00037.256839,W,,,300419,0.0,E,A*12
$GPGSA,A,2,12,13,15,24,,,,,,,,,2.1,1.9,1.0*3A
$GNGSA,A,2,12,13,15,24,,,,,,,,,2.1,1.9,1.0*24
$GNGSA,A,2,67,68,,,,,,,,,,,2.1,1.9,1.0*28
$GPGSV,3,1,10,12,36,213,31,13,34,135,28,15,64,172,22,24,66,303,14*77
$GPGSV,3,2,10,25,02,222,13,10,21,306,,17,30,070,,19,30,099,*72
$GPGSV,3,3,10,20,24,275,,28,11,043,*71
$GLGSV,3,1,09,67,25,180,18,68,63,246,10,78,68,323,,86,12,022,*6C
$GLGSV,3,2,09,77,34,046,,79,27,258,,69,33,322,,88,04,122,*65
$GLGSV,3,3,09,87,18,080,*52
$GPGGA,082955.0,4445.572596,N,00037.258924,W,1,04,1.9,15.3,M,50.0,M,,*7C
$GPVTG,,T,,M,,N,,K,N*2C
$GPRMC,082955.0,A,4445.572596,N,00037.258924,W,,,300419,0.0,E,A*14
$GPGSA,A,2,12,13,15,24,,,,,,,,,2.1,1.9,1.0*3A
$GNGSA,A,2,12,13,15,24,,,,,,,,,2.1,1.9,1.0*24
$GNGSA,A,2,67,68,,,,,,,,,,,2.1,1.9,1.0*28
$GPGSV,3,1,10,12,36,213,31,13,34,135,28,15,64,172,22,24,66,303,14*77
$GPGSV,3,2,10,25,02,222,13,10,21,306,,17,30,070,,19,30,099,*72
$GPGSV,3,3,10,20,24,275,,28,11,043,*71
$GLGSV,3,1,09,67,25,180,19,68,63,246,10,78,68,323,,86,12,022,*6D
$GLGSV,3,2,09,77,34,046,,79,27,258,,69,33,322,,88,04,122,*65
$GLGSV,3,3,09,87,18,080,*52
$GPGGA,082956.0,4445.588518,N,00037.263206,W,1,04,1.9,17.9,M,50.0,M,,*77
$GPVTG,,T,,M,,N,,K,N*2C
$GPRMC,082956.0,A,4445.588518,N,00037.263206,W,,,300419,0.0,E,A*17
$GPGSA,A,2,12,13,15,24,,,,,,,,,2.1,1.9,1.0*3A
$GNGSA,A,2,12,13,15,24,,,,,,,,,2.1,1.9,1.0*24
$GNGSA,A,2,67,68,,,,,,,,,,,2.1,1.9,1.0*28
$GPGSV,3,1,10,12,36,213,31,13,34,135,28,15,64,172,20,24,66,303,14*75
$GPGSV,3,2,10,25,02,222,13,10,21,306,,17,30,070,,19,30,099,*72
$GPGSV,3,3,10,20,24,275,,28,11,043,*71
$GLGSV,3,1,09,67,25,180,19,68,63,246,10,78,68,323,,86,12,022,*6D
$GLGSV,3,2,09,77,34,046,,79,27,258,,69,33,322,,88,04,122,*65
$GLGSV,3,3,09,87,18,080,*52
$GPGGA,082957.0,4445.592272,N,00037.263021,W,1,04,1.9,15.9,M,50.0,M,,*73
$GPVTG,,T,,M,,N,,K,N*2C
$GPRMC,082957.0,A,4445.592272,N,00037.263021,W,,,300419,0.0,E,A*11
$GPGSA,A,2,12,13,15,24,,,,,,,,,2.1,1.9,1.0*3A
$GNGSA,A,2,12,13,15,24,,,,,,,,,2.1,1.9,1.0*24
$GNGSA,A,2,67,68,,,,,,,,,,,2.1,1.9,1.0*28
$GPGSV,3,1,10,12,36,213,32,13,34,135,28,15,64,172,22,24,66,303,14*74
$GPGSV,3,2,10,25,02,222,13,10,21,306,,17,30,070,,19,30,099,*72
$GPGSV,3,3,10,20,24,275,,28,11,043,*71
$GLGSV,3,1,09,67,25,180,19,68,63,246,10,78,68,323,,86,12,022,*6D
$GLGSV,3,2,09,77,34,046,,79,27,258,,69,33,322,,88,04,122,*65
$GLGSV,3,3,09,87,18,080,*52
$GPGGA,082958.0,4445.596617,N,00037.263773,W,1,04,1.9,16.9,M,50.0,M,,*7C
$GPVTG,,T,,M,,N,,K,N*2C
$GPRMC,082958.0,A,4445.596617,N,00037.263773,W,,,300419,0.0,E,A*1D
$GPGSA,A,2,12,13,15,24,,,,,,,,,2.1,1.9,1.0*3A
$GNGSA,A,2,12,13,15,24,,,,,,,,,2.1,1.9,1.0*24
$GNGSA,A,2,67,68,,,,,,,,,,,2.1,1.9,1.0*28
$GPGSV,3,1,10,12,36,213,31,13,34,135,28,15,64,172,21,24,66,303,14*74
$GPGSV,3,2,10,25,02,222,13,10,21,306,,17,30,070,,19,30,099,*72
$GPGSV,3,3,10,20,24,275,,28,11,043,*71
$GLGSV,3,1,09,67,25,180,21,68,63,246,10,78,68,323,,86,12,022,*66
$GLGSV,3,2,09,77,34,046,,79,27,258,,69,33,322,,88,04,122,*65
$GLGSV,3,3,09,87,18,080,*52
$GPGGA,082959.0,4445.596935,N,00037.264911,W,1,04,1.9,18.1,M,50.0,M,,*79
$GPVTG,,T,,M,,N,,K,N*2C
$GPRMC,082959.0,A,4445.596935,N,00037.264911,W,,,300419,0.0,E,A*1E
$GPGSA,A,2,12,13,15,24,,,,,,,,,2.1,1.9,1.0*3A
$GNGSA,A,2,12,13,15,24,,,,,,,,,2.1,1.9,1.0*24
$GNGSA,A,2,67,68,,,,,,,,,,,2.1,1.9,1.0*28
$GPGSV,3,1,10,12,36,213,32,13,34,135,28,15,64,172,20,24,66,303,14*76
$GPGSV,3,2,10,25,02,222,13,10,21,306,,17,30,070,,19,30,099,*72
$GPGSV,3,3,10,20,24,275,,28,11,043,*71
$GLGSV,3,1,09,67,25,180,19,68,63,246,10,78,68,323,,86,12,022,*6D
$GLGSV,3,2,09,77,34,046,,79,27,258,,69,33,322,,88,04,122,*65
$GLGSV,3,3,09,87,18,080,*52
$GPGGA,083000.0,4445.576829,N,00037.260344,W,1,04,1.9,27.4,M,50.0,M,,*78
$GPVTG,,T,,M,,N,,K,N*2C
$GPRMC,083000.0,A,4445.576829,N,00037.260344,W,,,300419,0.0,E,A*16
$GPGSA,A,2,12,13,15,24,,,,,,,,,2.1,1.9,1.0*3A
$GNGSA,A,2,12,13,15,24,,,,,,,,,2.1,1.9,1.0*24
$GNGSA,A,2,67,68,,,,,,,,,,,2.1,1.9,1.0*28
$GPGSV,3,1,09,12,36,213,32,13,34,135,27,15,64,172,21,24,66,303,14*70
$GPGSV,3,2,09,10,21,306,,17,30,070,,19,30,099,,20,24,275,*7B
$GPGSV,3,3,09,28,11,043,*4D
$GLGSV,3,1,09,67,25,180,19,68,63,246,10,78,68,323,,86,12,022,*6D
$GLGSV,3,2,09,77,34,046,,79,27,258,,69,33,322,,88,04,122,*65
$GLGSV,3,3,09,87,18,080,*52
$GPGGA,083001.0,4445.577838,N,00037.258612,W,1,03,4.0,29.8,M,50.0,M,,*7C
$GPVTG,,T,,M,,N,,K,N*2C
$GPRMC,083001.0,A,4445.577838,N,00037.258612,W,,,300419,0.0,E,A*1B
$GPGSA,A,2,12,13,15,,,,,,,,,,4.1,4.0,1.0*36
$GNGSA,A,2,12,13,15,,,,,,,,,,4.1,4.0,1.0*28
$GNGSA,A,2,67,,,,,,,,,,,,4.1,4.0,1.0*2C
$GPGSV,3,1,10,12,36,213,31,13,34,135,27,15,64,172,23,24,66,303,14*79
$GPGSV,3,2,10,10,21,306,,17,30,070,,19,30,099,,20,24,275,*73
$GPGSV,3,3,10,25,02,222,,28,11,043,*72
$GLGSV,3,1,09,67,25,180,19,68,63,246,10,78,68,323,,86,12,022,*6D
$GLGSV,3,2,09,77,34,046,,79,27,258,,69,33,322,,88,04,122,*65
$GLGSV,3,3,09,87,18,080,*52
$GPGGA,083002.0,4445.571758,N,00037.257207,W,1,03,4.0,41.4,M,50.0,M,,*7D
$GPVTG,,T,,M,,N,,K,N*2C
$GPRMC,083002.0,A,4445.571758,N,00037.257207,W,,,300419,0.0,E,A*18
$GPGSA,A,2,12,13,15,,,,,,,,,,4.1,4.0,1.0*36
$GNGSA,A,2,12,13,15,,,,,,,,,,4.1,4.0,1.0*28
$GNGSA,A,2,67,,,,,,,,,,,,4.1,4.0,1.0*2C
$GPGSV,3,1,10,12,36,213,32,13,34,135,28,15,64,172,22,24,66,303,14*74
$GPGSV,3,2,10,10,21,306,,17,30,070,,19,30,099,,20,24,275,*73
$GPGSV,3,3,10,25,02,222,,28,11,043,*72
$GLGSV,3,1,09,67,25,180,17,68,63,246,10,78,68,323,,86,12,022,*63
$GLGSV,3,2,09,77,34,046,,79,27,258,,69,33,322,,88,04,122,*65
$GLGSV,3,3,09,87,18,080,*52
$GPGGA,083003.0,4445.572206,N,00037.257343,W,1,03,4.0,40.8,M,50.0,M,,*7D
$GPVTG,,T,,M,,N,,K,N*2C
$GPRMC,083003.0,A,4445.572206,N,00037.257343,W,,,300419,0.0,E,A*15
$GPGSA,A,2,12,13,15,,,,,,,,,,4.1,4.0,1.0*36
$GNGSA,A,2,12,13,15,,,,,,,,,,4.1,4.0,1.0*28
$GNGSA,A,2,67,,,,,,,,,,,,4.1,4.0,1.0*2C
$GPGSV,3,1,10,12,36,213,32,13,34,135,28,15,64,172,23,24,66,303,14*75
$GPGSV,3,2,10,10,21,306,,17,30,070,,19,30,099,,20,24,275,*73
$GPGSV,3,3,10,25,02,222,,28,11,043,*72
$GLGSV,3,1,09,67,25,180,18,68,63,246,10,78,68,323,,86,12,022,*6C
$GLGSV,3,2,09,77,34,046,,79,27,258,,69,33,322,,88,04,122,*65
$GLGSV,3,3,09,87,18,080,*52
$GPGGA,083004.0,4445.559988,N,00037.258319,W,1,03,4.0,43.0,M,50.0,M,,*75
$GPVTG,,T,,M,,N,,K,N*2C
$GPRMC,083004.0,A,4445.559988,N,00037.258319,W,,,300419,0.0,E,A*16
$GPGSA,A,2,12,13,15,,,,,,,,,,4.1,4.0,1.0*36
$GNGSA,A,2,12,13,15,,,,,,,,,,4.1,4.0,1.0*28
$GNGSA,A,2,67,,,,,,,,,,,,4.1,4.0,1.0*2C
$GPGSV,3,1,10,12,36,213,31,13,34,135,28,15,64,172,22,24,66,303,14*77
$GPGSV,3,2,10,10,21,306,,17,30,070,,19,30,099,,20,24,275,*73
$GPGSV,3,3,10,25,02,222,,28,11,043,*72
$GLGSV,3,1,09,67,25,180,17,68,63,246,10,78,68,323,,86,12,022,*63
$GLGSV,3,2,09,77,34,046,,79,27,258,,69,33,322,,88,04,122,*65
$GLGSV,3,3,09,87,18,080,*52
$GPGGA,083005.0,4445.559113,N,00037.259425,W,1,03,2.4,45.8,M,50.0,M,,*7B
$GPVTG,,T,,M,,N,,K,N*2C
$GPRMC,083005.0,A,4445.559113,N,00037.259425,W,,,300419,0.0,E,A*14
$GPGSA,A,2,12,13,15,,,,,,,,,,2.6,2.4,1.0*35
$GNGSA,A,2,12,13,15,,,,,,,,,,2.6,2.4,1.0*2B
$GNGSA,A,2,67,68,,,,,,,,,,,2.6,2.4,1.0*21
$GPGSV,3,1,10,12,36,213,32,13,34,135,28,15,64,172,23,24,66,303,14*75
$GPGSV,3,2,10,10,21,306,,17,30,070,,19,30,099,,20,24,275,*73
$GPGSV,3,3,10,25,02,222,,28,11,043,*72
$GLGSV,3,1,09,67,25,180,18,68,63,246,10,78,68,323,,86,12,022,*6C
$GLGSV,3,2,09,77,34,046,,79,27,258,,69,33,322,,88,04,122,*65
$GLGSV,3,3,09,87,18,080,*52
$GPGGA,083006.0,4445.561197,N,00037.259877,W,1,03,2.4,42.2,M,50.0,M,,*79
$GPVTG,,T,,M,,N,,K,N*2C
$GPRMC,083006.0,A,4445.561197,N,00037.259877,W,,,300419,0.0,E,A*1B
$GPGSA,A,2,12,13,15,,,,,,,,,,2.6,2.4,1.0*35
$GNGSA,A,2,12,13,15,,,,,,,,,,2.6,2.4,1.0*2B
$GNGSA,A,2,67,68,,,,,,,,,,,2.6,2.4,1.0*21
$GPGSV,3,1,10,12,36,213,32,13,34,135,28,15,64,172,21,24,66,303,14*77
$GPGSV,3,2,10,10,21,306,,17,30,070,,19,30,099,,20,24,275,*73
$GPGSV,3,3,10,25,02,222,,28,11,043,*72
$GLGSV,3,1,09,67,25,180,18,68,63,246,10,78,68,323,,86,12,022,*6C
$GLGSV,3,2,09,77,34,046,,79,27,258,,69,33,322,,88,04,122,*65
$GLGSV,3,3,09,87,18,080,*52
$GPGGA,083007.0,4445.568479,N,00037.260234,W,1,03,2.4,42.7,M,50.0,M,,*76
$GPVTG,,T,,M,,N,,K,N*2C
$GPRMC,083007.0,A,4445.568479,N,00037.260234,W,,,300419,0.0,E,A*11
$GPGSA,A,2,12,13,15,,,,,,,,,,2.6,2.4,1.0*35
$GNGSA,A,2,12,13,15,,,,,,,,,,2.6,2.4,1.0*2B
$GNGSA,A,2,67,68,,,,,,,,,,,2.6,2.4,1.0*21
$GPGSV,3,1,10,12,36,213,32,13,34,135,28,15,64,172,21,24,66,303,14*77
$GPGSV,3,2,10,10,21,306,,17,30,070,,19,30,099,,20,24,275,*73
$GPGSV,3,3,10,25,02,222,,28,11,043,*72
$GLGSV,3,1,09,67,25,180,19,68,63,246,10,78,68,323,,86,12,022,*6D
$GLGSV,3,2,09,77,34,046,,79,27,258,,69,33,322,,88,04,122,*65
$GLGSV,3,3,09,87,18,080,*52
$GPGGA,083008.0,4445.562888,N,00037.260091,W,1,03,2.4,46.8,M,50.0,M,,*77
$GPVTG,,T,,M,,N,,K,N*2C
$GPRMC,083008.0,A,4445.562888,N,00037.260091,W,,,300419,0.0,E,A*1B
$GPGSA,A,2,12,13,15,,,,,,,,,,2.6,2.4,1.0*35
$GNGSA,A,2,12,13,15,,,,,,,,,,2.6,2.4,1.0*2B
$GNGSA,A,2,67,68,,,,,,,,,,,2.6,2.4,1.0*21
$GPGSV,3,1,10,12,36,213,32,13,34,135,28,15,64,172,20,24,66,303,14*76
$GPGSV,3,2,10,10,21,306,,17,30,070,,19,30,099,,20,24,275,*73
$GPGSV,3,3,10,25,02,222,,28,11,043,*72
$GLGSV,3,1,09,67,25,180,19,68,63,246,10,78,68,323,,86,12,022,*6D
$GLGSV,3,2,09,77,34,046,,79,27,258,,69,33,322,,88,04,122,*65
$GLGSV,3,3,09,87,18,080,*52
$GPGGA,083009.0,4445.563666,N,00037.260779,W,1,03,2.4,47.2,M,50.0,M,,*73
$GPVTG,,T,,M,,N,,K,N*2C
$GPRMC,083009.0,A,4445.563666,N,00037.260779,W,,,300419,0.0,E,A*14
$GPGSA,A,2,12,13,15,,,,,,,,,,2.6,2.4,1.0*35
$GNGSA,A,2,12,13,15,,,,,,,,,,2.6,2.4,1.0*2B
$GNGSA,A,2,67,68,,,,,,,,,,,2.6,2.4,1.0*21
$GPGSV,3,1,10,12,36,213,31,13,34,135,27,15,64,172,19,24,66,303,14*70
$GPGSV,3,2,10,10,21,306,,17,30,070,,19,30,099,,20,24,275,*73
$GPGSV,3,3,10,25,02,222,,28,11,043,*72
$GLGSV,3,1,09,67,25,180,18,68,63,246,10,78,68,323,,86,12,022,*6C
$GLGSV,3,2,09,77,34,046,,79,27,258,,69,33,322,,88,04,122,*65
$GLGSV,3,3,09,87,18,080,*52
$GPGGA,083010.0,4445.564135,N,00037.260516,W,1,04,1.9,46.1,M,50.0,M,,*7D
$GPVTG,,T,,M,,N,,K,N*2C
$GPRMC,083010.0,A,4445.564135,N,00037.260516,W,,,300419,0.0,E,A*11
$GPGSA,A,2,12,13,15,24,,,,,,,,,2.1,1.9,1.0*3A
$GNGSA,A,2,12,13,15,24,,,,,,,,,2.1,1.9,1.0*24
$GNGSA,A,2,67,68,,,,,,,,,,,2.1,1.9,1.0*28
$GPGSV,3,1,10,12,36,213,32,13,34,135,28,15,64,172,20,24,66,303,14*76
$GPGSV,3,2,10,10,21,306,,17,30,070,,19,30,099,,20,24,275,*73
$GPGSV,3,3,10,25,02,222,,28,11,043,*72
$GLGSV,3,1,09,67,25,180,18,68,63,246,10,78,68,323,,86,12,022,*6C
$GLGSV,3,2,09,77,34,046,,79,27,258,,69,33,322,,88,04,122,*65
$GLGSV,3,3,09,87,18,080,*52
$GPGGA,083011.0,4445.563601,N,00037.260395,W,1,04,1.9,50.8,M,50.0,M,,*78
$GPVTG,,T,,M,,N,,K,N*2C
$GPRMC,083011.0,A,4445.563601,N,00037.260395,W,,,300419,0.0,E,A*1A
$GPGSA,A,2,12,13,15,24,,,,,,,,,2.1,1.9,1.0*3A
$GNGSA,A,2,12,13,15,24,,,,,,,,,2.1,1.9,1.0*24
$GNGSA,A,2,67,68,,,,,,,,,,,2.1,1.9,1.0*28
$GPGSV,3,1,10,12,36,213,32,13,34,135,28,15,64,172,22,24,66,303,14*74
$GPGSV,3,2,10,10,21,306,,17,30,070,,19,30,099,,20,24,275,*73
$GPGSV,3,3,10,25,02,222,,28,11,043,*72
$GLGSV,3,1,09,67,25,180,17,68,63,246,10,78,68,323,,86,12,022,*63
$GLGSV,3,2,09,77,34,046,,79,27,258,,69,33,322,,88,04,122,*65
$GLGSV,3,3,09,87,18,080,*52
$GPGGA,083012.0,4445.563761,N,00037.260443,W,1,04,1.9,49.8,M,50.0,M,,*78
$GPVTG,,T,,M,,N,,K,N*2C
$GPRMC,083012.0,A,4445.563761,N,00037.260443,W,,,300419,0.0,E,A*12
$GPGSA,A,2,12,13,15,24,,,,,,,,,2.2,1.9,1.0*39
$GNGSA,A,2,12,13,15,24,,,,,,,,,2.2,1.9,1.0*27
$GNGSA,A,2,67,,,,,,,,,,,,2.2,1.9,1.0*25
$GPGSV,3,1,10,12,36,213,32,13,34,135,28,15,64,172,22,24,66,303,14*74
$GPGSV,3,2,10,10,21,306,,17,30,070,,19,30,099,,20,24,275,*73
$GPGSV,3,3,10,25,02,222,,28,11,043,*72
$GLGSV,3,1,09,67,25,180,18,68,63,246,10,78,68,323,,86,12,022,*6C
$GLGSV,3,2,09,77,34,046,,79,27,258,,69,33,322,,88,04,122,*65
$GLGSV,3,3,09,87,18,080,*52
$GPGGA,083013.0,4445.564585,N,00037.260197,W,1,04,1.9,49.7,M,50.0,M,,*75
$GPVTG,,T,,M,,N,,K,N*2C
$GPRMC,083013.0,A,4445.564585,N,00037.260197,W,,,300419,0.0,E,A*10
$GPGSA,A,2,12,13,15,24,,,,,,,,,2.2,1.9,1.0*39
$GNGSA,A,2,12,13,15,24,,,,,,,,,2.2,1.9,1.0*27
$GNGSA,A,2,67,,,,,,,,,,,,2.2,1.9,1.0*25
$GPGSV,3,1,10,12,36,213,32,13,34,135,28,15,64,172,21,24,66,303,14*77
$GPGSV,3,2,10,10,21,306,,17,30,070,,19,30,099,,20,24,275,*73
$GPGSV,3,3,10,25,02,222,,28,11,043,*72
$GLGSV,3,1,09,67,25,180,18,68,63,246,10,78,68,323,,86,12,022,*6C
$GLGSV,3,2,09,77,34,046,,79,27,258,,69,33,322,,88,04,122,*65
$GLGSV,3,3,09,87,18,080,*52
$GPGGA,083014.0,4445.564888,N,00037.260339,W,1,04,1.9,47.8,M,50.0,M,,*75
$GPVTG,,T,,M,,N,,K,N*2C
$GPRMC,083014.0,A,4445.564888,N,00037.260339,W,,,300419,0.0,E,A*11
$GPGSA,A,2,12,13,15,24,,,,,,,,,2.2,1.9,1.0*39
$GNGSA,A,2,12,13,15,24,,,,,,,,,2.2,1.9,1.0*27
$GNGSA,A,2,67,,,,,,,,,,,,2.2,1.9,1.0*25
$GPGSV,3,1,10,12,36,213,31,13,34,135,28,15,64,172,21,24,66,303,14*74
$GPGSV,3,2,10,10,21,306,,17,30,070,,19,30,099,,20,24,275,*73
$GPGSV,3,3,10,25,02,222,,28,11,043,*72
$GLGSV,3,1,09,67,25,180,18,68,63,246,10,78,68,323,,86,12,022,*6C
$GLGSV,3,2,09,77,34,046,,79,27,258,,69,33,322,,88,04,122,*65
$GLGSV,3,3,09,87,18,080,*52
$GPGGA,083015.0,4445.565819,N,00037.260499,W,1,04,1.9,45.2,M,50.0,M,,*78
$GPVTG,,T,,M,,N,,K,N*2C
$GPRMC,083015.0,A,4445.565819,N,00037.260499,W,,,300419,0.0,E,A*14
$GPGSA,A,2,12,13,15,24,,,,,,,,,2.2,1.9,1.0*39
$GNGSA,A,2,12,13,15,24,,,,,,,,,2.2,1.9,1.0*27
$GNGSA,A,2,67,,,,,,,,,,,,2.2,1.9,1.0*25
$GPGSV,3,1,10,12,36,213,32,13,34,135,29,15,64,172,21,24,66,303,14*76
$GPGSV,3,2,10,10,21,306,,17,30,070,,19,30,099,,20,24,275,*73
$GPGSV,3,3,10,25,02,222,,28,11,043,*72
$GLGSV,3,1,09,67,25,180,19,68,63,246,10,78,68,323,,86,12,022,*6D
$GLGSV,3,2,09,77,34,046,,79,27,258,,69,33,322,,88,04,122,*65
$GLGSV,3,3,09,87,18,080,*52
$GPGGA,083016.0,4445.544583,N,00037.256676,W,1,04,1.9,52.3,M,50.0,M,,*77
$GPVTG,,T,,M,,N,,K,N*2C
$GPRMC,083016.0,A,4445.544583,N,00037.256676,W,,,300419,0.0,E,A*1C
$GPGSA,A,2,12,13,15,24,,,,,,,,,2.2,1.9,1.0*39
$GNGSA,A,2,12,13,15,24,,,,,,,,,2.2,1.9,1.0*27
$GNGSA,A,2,67,,,,,,,,,,,,2.2,1.9,1.0*25
$GPGSV,3,1,10,12,36,213,32,13,34,135,28,15,64,172,21,24,66,303,14*77
$GPGSV,3,2,10,10,21,306,,17,30,070,,19,30,099,,20,24,275,*73
$GPGSV,3,3,10,25,02,222,,28,11,043,*72
$GLGSV,3,1,09,67,25,180,18,68,63,246,10,78,68,323,,86,12,022,*6C
$GLGSV,3,2,09,77,34,046,,79,27,258,,69,33,322,,88,04,122,*65
$GLGSV,3,3,09,87,18,080,*52
$GPGGA,083017.0,4445.545276,N,00037.255641,W,1,03,4.0,52.3,M,50.0,M,,*76
$GPVTG,,T,,M,,N,,K,N*2C
$GPRMC,083017.0,A,4445.545276,N,00037.255641,W,,,300419,0.0,E,A*16
$GPGSA,A,2,12,13,15,,,,,,,,,,4.1,4.0,1.0*36
$GNGSA,A,2,12,13,15,,,,,,,,,,4.1,4.0,1.0*28
$GNGSA,A,2,67,,,,,,,,,,,,4.1,4.0,1.0*2C
$GPGSV,3,1,10,12,36,213,31,13,34,135,28,15,64,172,19,24,66,303,14*7F
$GPGSV,3,2,10,10,21,306,,17,30,070,,19,30,099,,20,24,275,*73
$GPGSV,3,3,10,25,02,222,,28,11,043,*72
$GLGSV,3,1,09,67,25,180,18,68,63,246,10,78,68,323,,86,12,022,*6C
$GLGSV,3,2,09,77,34,046,,79,27,258,,69,33,322,,88,04,122,*65
$GLGSV,3,3,09,87,18,080,*52
$GPGGA,083018.0,4445.544981,N,00037.255176,W,1,03,4.0,53.3,M,50.0,M,,*79
$GPVTG,,T,,M,,N,,K,N*2C
$GPRMC,083018.0,A,4445.544981,N,00037.255176,W,,,300419,0.0,E,A*18
$GPGSA,A,2,12,13,15,,,,,,,,,,4.1,4.0,1.0*36
$GNGSA,A,2,12,13,15,,,,,,,,,,4.1,4.0,1.0*28
$GNGSA,A,2,67,,,,,,,,,,,,4.1,4.0,1.0*2C
$GPGSV,3,1,10,12,36,213,32,13,34,135,28,15,64,172,20,24,66,303,14*76
$GPGSV,3,2,10,10,21,306,,17,30,070,,19,30,099,,20,24,275,*73
$GPGSV,3,3,10,25,02,222,,28,11,043,*72
$GLGSV,3,1,09,67,25,180,19,68,63,246,10,78,68,323,,86,12,022,*6D
$GLGSV,3,2,09,77,34,046,,79,27,258,,69,33,322,,88,04,122,*65
$GLGSV,3,3,09,87,18,080,*52
$GPGGA,083019.0,4445.545775,N,00037.255299,W,1,03,4.0,50.9,M,50.0,M,,*77
$GPVTG,,T,,M,,N,,K,N*2C
$GPRMC,083019.0,A,4445.545775,N,00037.255299,W,,,300419,0.0,E,A*1F
$GPGSA,A,2,12,13,15,,,,,,,,,,4.1,4.0,1.0*36
$GNGSA,A,2,12,13,15,,,,,,,,,,4.1,4.0,1.0*28
$GNGSA,A,2,67,,,,,,,,,,,,4.1,4.0,1.0*2C
$GPGSV,3,1,10,12,36,213,32,13,34,135,29,15,64,172,21,24,66,303,12*70
$GPGSV,3,2,10,10,21,306,,17,30,070,,19,30,099,,20,24,275,*73
$GPGSV,3,3,10,25,02,222,,28,11,043,*72
$GLGSV,3,1,09,67,25,180,19,68,63,246,10,78,68,323,,86,12,022,*6D
$GLGSV,3,2,09,77,34,046,,79,27,258,,69,33,322,,88,04,122,*65
$GLGSV,3,3,09,87,18,080,*52
$GPGGA,083020.0,4445.546869,N,00037.255676,W,1,04,1.9,49.6,M,50.0,M,,*75
$GPVTG,,T,,M,,N,,K,N*2C
$GPRMC,083020.0,A,4445.546869,N,00037.255676,W,,,300419,0.0,E,A*11
$GPGSA,A,2,12,13,15,24,,,,,,,,,2.2,1.9,1.0*39
$GNGSA,A,2,12,13,15,24,,,,,,,,,2.2,1.9,1.0*27
$GNGSA,A,2,67,,,,,,,,,,,,2.2,1.9,1.0*25
$GPGSV,3,1,10,12,36,213,31,13,34,135,29,15,64,172,19,24,66,303,12*78
$GPGSV,3,2,10,10,21,306,,17,30,070,,19,30,099,,20,24,275,*73
$GPGSV,3,3,10,25,02,222,,28,11,043,*72
$GLGSV,3,1,09,67,25,180,18,68,63,246,10,78,68,323,,86,12,022,*6C
$GLGSV,3,2,09,77,34,046,,79,27,258,,69,33,322,,88,04,122,*65
$GLGSV,3,3,09,87,18,080,*52
$GPGGA,083021.0,4445.560451,N,00037.257880,W,1,04,1.9,49.8,M,50.0,M,,*7C
$GPVTG,,T,,M,,N,,K,N*2C
$GPRMC,083021.0,A,4445.560451,N,00037.257880,W,,,300419,0.0,E,A*16
$GPGSA,A,2,12,13,15,24,,,,,,,,,2.2,1.9,1.0*39
$GNGSA,A,2,12,13,15,24,,,,,,,,,2.2,1.9,1.0*27
$GNGSA,A,2,67,,,,,,,,,,,,2.2,1.9,1.0*25
$GPGSV,3,1,10,12,36,213,32,13,34,135,29,15,64,172,20,24,66,303,12*71
$GPGSV,3,2,10,10,21,306,,17,30,070,,19,30,099,,20,24,275,*73
$GPGSV,3,3,10,25,02,222,,28,11,043,*72
$GLGSV,3,1,09,67,25,180,18,68,63,246,10,78,68,323,,86,12,022,*6C
$GLGSV,3,2,09,77,34,046,,79,27,258,,69,33,322,,88,04,122,*65
$GLGSV,3,3,09,87,18,080,*52
$GPGGA,083022.0,4445.557805,N,00037.258808,W,1,04,1.9,50.6,M,50.0,M,,*7F
$GPVTG,,T,,M,,N,,K,N*2C
$GPRMC,083022.0,A,4445.557805,N,00037.258808,W,,,300419,0.0,E,A*13
$GPGSA,A,2,12,13,15,24,,,,,,,,,2.2,1.9,1.0*39
$GNGSA,A,2,12,13,15,24,,,,,,,,,2.2,1.9,1.0*27
$GNGSA,A,2,67,,,,,,,,,,,,2.2,1.9,1.0*25
$GPGSV,3,1,10,12,36,213,31,13,34,135,29,15,64,172,16,24,66,303,12*77
$GPGSV,3,2,10,10,21,306,,17,30,070,,19,30,099,,20,24,275,*73
$GPGSV,3,3,10,25,02,222,,28,11,043,*72
$GLGSV,3,1,09,67,25,180,19,68,63,246,10,78,68,323,,86,12,022,*6D
$GLGSV,3,2,09,77,34,046,,79,27,258,,69,33,322,,88,04,122,*65
$GLGSV,3,3,09,87,18,080,*52
$GPGGA,083023.0,4445.543000,N,00037.257932,W,1,04,1.9,52.2,M,50.0,M,,*77
$GPVTG,,T,,M,,N,,K,N*2C
$GPRMC,083023.0,A,4445.543000,N,00037.257932,W,,,300419,0.0,E,A*1D
$GPGSA,A,2,12,13,15,24,,,,,,,,,2.2,1.9,1.0*39
$GNGSA,A,2,12,13,15,24,,,,,,,,,2.2,1.9,1.0*27
$GNGSA,A,2,67,,,,,,,,,,,,2.2,1.9,1.0*25
$GPGSV,3,1,10,12,36,213,31,13,34,135,29,15,64,172,19,24,66,303,12*78
$GPGSV,3,2,10,10,21,306,,17,30,070,,19,30,099,,20,24,275,*73
$GPGSV,3,3,10,25,02,222,,28,11,043,*72
$GLGSV,3,1,09,67,25,180,20,68,63,246,10,78,68,323,,86,12,022,*67
$GLGSV,3,2,09,77,34,046,,79,27,258,,69,33,322,,88,04,122,*65
$GLGSV,3,3,09,87,18,080,*52
$GPGGA,083024.0,4445.545517,N,00037.258158,W,1,04,1.9,53.2,M,50.0,M,,*7F
$GPVTG,,T,,M,,N,,K,N*2C
$GPRMC,083024.0,A,4445.545517,N,00037.258158,W,,,300419,0.0,E,A*14
$GPGSA,A,2,12,13,15,24,,,,,,,,,2.2,1.9,1.0*39
$GNGSA,A,2,12,13,15,24,,,,,,,,,2.2,1.9,1.0*27
$GNGSA,A,2,67,,,,,,,,,,,,2.2,1.9,1.0*25
$GPGSV,3,1,10,10,21,306,13,12,36,213,32,13,34,135,29,15,64,172,18*7A
$GPGSV,3,2,10,24,66,303,12,17,30,070,,19,30,099,,20,24,275,*71
$GPGSV,3,3,10,25,02,222,,28,11,043,*72
$GLGSV,2,1,08,67,25,180,18,78,68,323,,86,12,022,,77,34,046,*63
$GLGSV,2,2,08,79,27,258,,69,33,322,,88,04,122,,87,18,080,*6E
$GPGGA,083025.0,4445.548939,N,00037.259025,W,1,05,1.7,53.8,M,50.0,M,,*7C
$GPVTG,,T,,M,,N,,K,N*2C
$GPRMC,083025.0,A,4445.548939,N,00037.259025,W,,,300419,0.0,E,A*12
$GPGSA,A,2,10,12,13,15,24,,,,,,,,1.9,1.7,0.9*36
$GNGSA,A,2,10,12,13,15,24,,,,,,,,1.9,1.7,0.9*28
$GNGSA,A,2,67,,,,,,,,,,,,1.9,1.7,0.9*2B
$GPGSV,3,1,10,10,21,306,13,12,36,213,32,13,34,135,29,15,64,172,18*7A
$GPGSV,3,2,10,24,66,303,12,17,30,070,,19,30,099,,20,24,275,*71
$GPGSV,3,3,10,25,02,222,,28,11,043,*72
$GLGSV,3,1,09,67,25,180,19,78,68,323,,86,12,022,,77,34,046,*62
$GLGSV,3,2,09,79,27,258,,69,33,322,,88,04,122,,87,18,080,*6E
$GLGSV,3,3,09,68,63,246,*57
$GPGGA,083026.0,4445.551686,N,00037.259502,W,1,05,1.7,55.4,M,50.0,M,,*76
$GPVTG,,T,,M,,N,,K,N*2C
$GPRMC,083026.0,A,4445.551686,N,00037.259502,W,,,300419,0.0,E,A*12
$GPGSA,A,2,10,12,13,15,24,,,,,,,,1.9,1.7,0.9*36
$GNGSA,A,2,10,12,13,15,24,,,,,,,,1.9,1.7,0.9*28
$GNGSA,A,2,67,,,,,,,,,,,,1.9,1.7,0.9*2B
$GPGSV,3,1,10,10,21,306,14,12,36,213,32,13,34,135,29,15,64,172,17*72
$GPGSV,3,2,10,24,66,303,12,17,30,070,,19,30,099,,20,24,275,*71
$GPGSV,3,3,10,25,02,222,,28,11,043,*72
$GLGSV,3,1,09,67,25,180,17,78,68,323,,86,12,022,,77,34,046,*6C
$GLGSV,3,2,09,79,27,258,,69,33,322,,88,04,122,,87,18,080,*6E
$GLGSV,3,3,09,68,63,246,*57
$GPGGA,083027.0,4445.553035,N,00037.259842,W,1,04,1.8,57.4,M,50.0,M,,*7E
$GPVTG,,T,,M,,N,,K,N*2C
$GPRMC,083027.0,A,4445.553035,N,00037.259842,W,,,300419,0.0,E,A*16
$GPGSA,A,2,10,12,13,15,,,,,,,,,2.0,1.8,0.9*35
$GNGSA,A,2,10,12,13,15,,,,,,,,,2.0,1.8,0.9*2B
$GNGSA,A,2,67,,,,,,,,,,,,2.0,1.8,0.9*2E
$GPGSV,3,1,10,10,21,306,14,12,36,213,32,13,34,135,30,15,64,172,20*7E
$GPGSV,3,2,10,24,66,303,12,17,30,070,,19,30,099,,20,24,275,*71
$GPGSV,3,3,10,25,02,222,,28,11,043,*72
$GLGSV,3,1,09,67,25,180,19,78,68,323,,86,12,022,,77,34,046,*62
$GLGSV,3,2,09,79,27,258,,69,33,322,,88,04,122,,87,18,080,*6E
$GLGSV,3,3,09,68,63,246,*57
$GPGGA,083028.0,4445.555047,N,00037.260219,W,1,04,1.8,56.2,M,50.0,M,,*7B
$GPVTG,352.8,T,352.8,M,2.6,N,4.8,K,A*2B
$GPRMC,083028.0,A,4445.555047,N,00037.260219,W,2.6,352.8,300419,0.0,E,A*1C
$GPGSA,A,2,10,12,13,15,,,,,,,,,2.0,1.8,0.9*35
$GNGSA,A,2,10,12,13,15,,,,,,,,,2.0,1.8,0.9*2B
$GNGSA,A,2,67,,,,,,,,,,,,2.0,1.8,0.9*2E
$GPGSV,3,1,10,10,21,306,14,12,36,213,32,13,34,135,29,15,64,172,20*76
$GPGSV,3,2,10,24,66,303,12,17,30,070,,19,30,099,,20,24,275,*71
$GPGSV,3,3,10,25,02,222,,28,11,043,*72
$GLGSV,3,1,09,67,25,180,21,78,68,323,,86,12,022,,77,34,046,*69
$GLGSV,3,2,09,79,27,258,,69,33,322,,88,04,122,,87,18,080,*6E
$GLGSV,3,3,09,68,63,246,*57
$GPGGA,083029.0,4445.555781,N,00037.260268,W,1,04,1.8,54.4,M,50.0,M,,*75
$GPVTG,354.0,T,354.0,M,2.5,N,4.6,K,A*26
$GPRMC,083029.0,A,4445.555781,N,00037.260268,W,2.5,354.0,300419,0.0,E,A*1B
$GPGSA,A,2,10,12,13,15,,,,,,,,,2.0,1.8,0.9*35
$GNGSA,A,2,10,12,13,15,,,,,,,,,2.0,1.8,0.9*2B
$GNGSA,A,2,67,,,,,,,,,,,,2.0,1.8,0.9*2E
$GPGSV,3,1,10,10,21,306,14,12,36,213,32,13,34,135,29,15,64,172,20*76
$GPGSV,3,2,10,24,66,303,12,17,30,070,,19,30,099,,20,24,275,*71
$GPGSV,3,3,10,25,02,222,,28,11,043,*72
$GLGSV,3,1,09,67,25,180,16,78,68,323,,86,12,022,,77,34,046,*6D
$GLGSV,3,2,09,79,27,258,,69,33,322,,88,04,122,,87,18,080,*6E
$GLGSV,3,3,09,68,63,246,*57
$GPGGA,083030.0,4445.555507,N,00037.260282,W,1,04,1.8,52.2,M,50.0,M,,*75
$GPVTG,356.5,T,356.5,M,2.2,N,4.0,K,A*27
$GPRMC,083030.0,A,4445.555507,N,00037.260282,W,2.2,356.5,300419,0.0,E,A*1B
$GPGSA,A,2,10,12,13,15,,,,,,,,,2.0,1.8,0.9*35
$GNGSA,A,2,10,12,13,15,,,,,,,,,2.0,1.8,0.9*2B
$GNGSA,A,2,67,,,,,,,,,,,,2.0,1.8,0.9*2E
$GPGSV,3,1,10,10,21,306,14,12,36,213,32,13,34,135,30,15,64,172,21*7F
